landingFacilityType|locationIdentifier|stateCode|cityName|officialFacilityName|elevation|land_area|refPtLatitude|refPtLongitude
AIRPORT|ADK|AK|ADAK ISLAND|ADAK|19.5||51.8835820555556|-176.642479916667
AIRPORT|AKK|AK|AKHIOK|AKHIOK|44.4||56.9386908333333|-154.182555555556
AIRPORT|Z13|AK|AKIACHAK|AKIACHAK|22.8|231|60.9138097222222|-161.493329166667
SEAPLANE BASE|KKI|AK|AKIACHAK|AKIACHAK|18||60.9078647222222|-161.435077222222
AIRPORT|AKI|AK|AKIAK|AKIAK|39.8|59|60.9028972222222|-161.230583333333
SEAPLANE BASE|KQA|AK|AKUTAN|AKUTAN|0||54.1339|-165.778383333333
AIRPORT|7AK|AK|AKUTAN|AKUTAN|129.3|369|54.1446111111111|-165.604108333333
AIRPORT|AUK|AK|ALAKANUK|ALAKANUK|21.7||62.6830555555556|-164.722194444444
AIRPORT|Z25|AK|ALEKNAGIK|TRIPOD|225||59.2631458333333|-158.557755277778
SEAPLANE BASE|Z33|AK|ALEKNAGIK|ALEKNAGIK|7||59.2739780555556|-158.623589166667
AIRPORT|5A8|AK|ALEKNAGIK|ALEKNAGIK /NEW|63|51|59.2825555555556|-158.617866666667
AIRPORT|4AK7|AK|ALEKNAGIK|ALEKNAGIK MISSION STRIP|150||59.2809233333333|-158.597200277778
AIRPORT|6A8|AK|ALLAKAKET|ALLAKAKET|441.1||66.5518333333333|-152.622166666667
AIRPORT|AFM|AK|AMBLER|AMBLER|292.6|272|67.1062022777778|-157.857170861111
AIRPORT|80A|AK|AMERICAN CREEK|AMERICAN CREEK|513||65.1039819444444|-151.177233333333
SEAPLANE BASE|AK81|AK|AMOOK BAY|AMOOK BAY|0||57.4714936111111|-153.815360555556
AIRPORT|AKP|AK|ANAKTUVUK PASS|ANAKTUVUK PASS|2106.3||68.1336111111111|-151.743333333333
AIRPORT|CSR|AK|ANCHORAGE|CAMPBELL AIRSTRIP|286|4201|61.1587|-149.780611111111
HELIPORT|AK38|AK|ANCHORAGE|PROVIDENCE HOSPITAL|140||61.1890305555556|-149.821830555556
AIRPORT|AA06|AK|ANCHORAGE|SIXMILE LAKE|85|80|61.2897222222222|-149.806111111111
HELIPORT|AA04|AK|ANCHORAGE|VIKING|72||61.224775|-149.839094444444
HELIPORT|2OK|AK|ANCHORAGE|ALASKA RGNL HOSPITAL|137|426|61.2127027777778|-149.826583333333
AIRPORT|AK36|AK|POINT MACKENZIE|POINT MAC|123||61.4360194444444|-150.122361111111
HELIPORT|AK82|AK|ANCHORAGE|CAMPBELL BLM|235||61.1561305555556|-149.7923
AIRPORT|64AK|AK|POINT MACKENZIE|CARPENTIERS STRIP|175||61.4399111111111|-150.0261
HELIPORT|99AA|AK|ANCHORAGE|AVIATOR HOTEL ANCHORAGE|123||61.2189055555556|-149.886480555556
AIRPORT|AK12|AK|ANCHORAGE|FLYING CROWN|150|6|61.1066|-149.864269444444
AIRPORT|A13|AK|ANCHORAGE|BOLD|900||61.3413388888889|-148.998880555556
HELIPORT|AK37|AK|POINT MACKENZIE|POINT MACKENZIE|72|2|61.2494513888889|-150.035560555556
AIRPORT|ANC|AK|ANCHORAGE|TED STEVENS ANCHORAGE INTL|151.4|4608|61.1741565|-149.998188638889
AIRPORT|MRI|AK|ANCHORAGE|MERRILL FIELD|137.3|436|61.2135450555556|-149.844724138889
SEAPLANE BASE|3C3|AK|ANCHORAGE|CAMPBELL LAKE SPB|20||61.1330611111111|-149.9419
AIRPORT|EDF|AK|ANCHORAGE|ELMENDORF AFB|213||61.2513531944444|-149.806525666667
HELIPORT|AK91|AK|ANCHORAGE|ELMENDORF HOSPITAL|228||61.2353833333333|-149.749275
AIRPORT|6AK5|AK|ANCHORAGE|FIRE ISLAND|55|30|61.1683372222222|-150.160553611111
AIRPORT|9AK5|AK|ANCHORAGE|SKY HARBOR|340||61.1164805555556|-149.818769444444
HELIPORT|PA06|AK|ANCHORAGE|PACER PLACE|367|2|61.1296944444444|-149.795916666667
AIRPORT|FRN|AK|FORT RICHARDSON(ANCHORAGE)|BRYANT AAF|386.8||61.2658993055555|-149.653307638889
AIRPORT|LHD|AK|ANCHORAGE|LAKE HOOD|79.3||61.1866391944444|-149.965393638889
AIRPORT|2AK0|AK|POINT MACKENZIE|MAC KENZIE COUNTRY AIRPARK|120|80|61.2558805555556|-149.974655555556
AIRPORT|0AK9|AK|POINT MACKENZIE|FALCON LAKE STRIP|110||61.33255|-150.059052777778
AIRPORT|AK00|AK|ANCHOR POINT|ANCHOR RIVER AIRPARK|120|12|59.7830555555556|-151.853055555556
AIRPORT|00AK|AK|ANCHOR POINT|LOWELL FIELD|252|200|59.9488888888889|-151.692222222222
SEAPLANE BASE|AGN|AK|ANGOON|ANGOON|0||57.5035552777778|-134.585093888889
AIRPORT|ANI|AK|ANIAK|ANIAK|95.9|1722|61.5815969444444|-159.543042777778
AIRPORT|ANN|AK|ANNETTE|ANNETTE ISLAND|119||55.0422935833333|-131.570899361111
SEAPLANE BASE|Z43|AK|ANNETTE|TAMGAS HARBOR|0||55.0679922222222|-131.556954722222
AIRPORT|ANV|AK|ANVIK|ANVIK|297.3|245|62.6473333333333|-160.190055555556
SEAPLANE BASE|K40|AK|ANVIK|ANVIK|52||62.6562238888889|-160.205448611111
AIRPORT|ARC|AK|ARCTIC VILLAGE|ARCTIC VILLAGE|2092||68.1146694444444|-145.579415277778
AIRPORT|AKA|AK|ATKA|ATKA|55.2|340|52.2205833333333|-174.206194444444
AIRPORT|4A2|AK|ATMAUTLUAK|ATMAUTLUAK|19.4|99|60.8678888888889|-162.274277777778
AIRPORT|ATK|AK|ATQASUK|ATQASUK EDWARD BURNELL SR MEMORIAL|101.3||70.4671111111111|-157.435666666667
AIRPORT|ATU|AK|ATTU|CASCO COVE CGS|88||52.8325416666667|173.175554166667
SEAPLANE BASE|BNF|AK|BARANOF|BARANOF WARM SPRINGS FLOAT AND SEAPLANE FLOAT|0||57.0888258333333|-134.833141388889
AIRPORT|BRW|AK|BARROW|WILEY POST-WILL ROGERS MEMORIAL|48.9||71.2848611111111|-156.768583333333
AIRPORT|BTI|AK|BARTER ISLAND|BARTER ISLAND|55.1||70.1131111111111|-143.653611111111
SEAPLANE BASE|BQV|AK|BARTLETT COVE|BARTLETT COVE|0||58.4552077777778|-135.88517
AIRPORT|Z47|AK|BASIN CREEK|ENGSTROM FIELD|143||64.6790902777778|-165.299201388889
AIRPORT|AK02|AK|BEAR CREEK|BEAR CREEK 1|575||65.5398866666667|-161.062377777778
AIRPORT|Z48|AK|BEAR CREEK|BEAR CREEK 3|740||63.5716091666667|-156.144050555556
AIRPORT|Z52|AK|BEAR LAKE|JOHNSONS LANDING|130||56.0366855555556|-160.266205277778
AIRPORT|WBQ|AK|BEAVER|BEAVER|364.7|446|66.3622222222222|-147.4065
SEAPLANE BASE|KBE|AK|BELL ISLAND|BELL ISLAND HOT SPRINGS|0||55.9290780555556|-131.571690555556
AIRPORT|BLG|AK|BELUGA|BELUGA|87.2||61.1729618888889|-151.045416305556
SEAPLANE BASE|Z58|AK|BETHEL|HANGAR LAKE|17||60.7967480555556|-161.727296388889
SEAPLANE BASE|Z59|AK|BETHEL|BETHEL|15||60.7820252777778|-161.743128888889
AIRPORT|BET|AK|BETHEL|BETHEL|128.8|1056|60.7785555555555|-161.837166666667
AIRPORT|BTT|AK|BETTLES|BETTLES|647.3|1195|66.9139444444445|-151.529055555556
SEAPLANE BASE|2A4|AK|BETTLES|VOR LAKE WATERLANE|648.1|292|66.8874444444444|-151.494138888889
SEAPLANE BASE|85AK|AK|BIG LAKE|MARION|150||61.5091666666667|-149.908611111111
AIRPORT|02AA|AK|BIG LAKE|H & H FIELD|160|14|61.5066666666667|-149.911944444444
SEAPLANE BASE|AA01|AK|BIG LAKE|WEST BEAVER|215||61.5849611111111|-149.846530555556
SEAPLANE BASE|AA02|AK|BIG LAKE|HORSESHOE LAKE|140||61.5714805555556|-149.924111111111
SEAPLANE BASE|86AK|AK|BIG LAKE|"HOPPE'S"|180||61.5514305555556|-149.94575
SEAPLANE BASE|91AK|AK|BIG LAKE|KUCERA|175||61.5763888888889|-149.943333333333
AIRPORT|20AK|AK|BIG LAKE|OWEN FIELD|150||61.5037888888889|-149.896044444444
AIRPORT|AK86|AK|BIG LAKE|KRAMER|150||61.5735388888889|-149.91135
AIRPORT|08AK|AK|BIG LAKE|FISHER|200||61.5696388888889|-149.724438888889
AIRPORT|09AK|AK|BIG LAKE|WEST BEAVER|228||61.5893611111111|-149.847333333333
AIRPORT|BGQ|AK|BIG LAKE|BIG LAKE|157.5||61.5346833333333|-149.812544444444
HELIPORT|AK87|AK|BIG LAKE|TEAM LEVINE|150||61.5148611111111|-149.929011111111
AIRPORT|AK95|AK|BIG LAKE|TWIN LAKE|185||61.5703666666667|-149.779038888889
AIRPORT|9AK7|AK|BIG LAKE|CUBDIVISION|250|5|61.5898305555556|-149.816661111111
AIRPORT|63AK|AK|BIG LAKE|KUCERA RESIDENCE|189||61.5843305555556|-149.9381
SEAPLANE BASE|D71|AK|BIG LAKE|BEAVER LAKE|150||61.5751388888889|-149.847666666667
HELIPORT|68AK|AK|BIG LAKE|"COWELL'S"|142||61.5165805555556|-149.931080555556
SEAPLANE BASE|L95|AK|BIG LAKE|JONES LANDING|180||61.5547722222222|-149.939336111111
HELIPORT|AA07|AK|BIG LAKE|SADDLEBACK ISLAND|150||61.521575|-149.927138888889
AIRPORT|95AK|AK|BIG LAKE|"BROWN'S HOMESTEAD"|140||61.4726194444444|-149.982469444444
SEAPLANE BASE|6A7|AK|BIG LAKE|BROCKER LAKE|100||61.4818388888889|-149.773244444444
AIRPORT|37AK|AK|BIG MOUNTAIN|BIG MOUNTAIN|663||59.3612466666667|-155.258821388889
AIRPORT|AA10|AK|BIG LAKE|EAGLES ROOST|330||61.5311305555556|-149.700938888889
SEAPLANE BASE|AK48|AK|BIG LAKE|HAGGARDS LANDING SEAPLANE BASE|150||61.528|-150.014666666667
AIRPORT|Z91|AK|BIRCH CREEK|BIRCH CREEK|439.8|155|66.2744722222222|-145.818194444444
AIRPORT|BCV|AK|BIRCHWOOD|BIRCHWOOD|83|196|61.4160887777778|-149.508306138889
AIRPORT|5BK|AK|BLACK RAPIDS|BLACK RAPIDS|2125||63.5351463888889|-145.860886111111
AIRPORT|AK97|AK|BOSWELL BAY|BOSWELL BAY|230||60.4230641666667|-146.145909444444
AIRPORT|BYA|AK|BOUNDARY|BOUNDARY|2940|45|64.0783027777778|-141.113375
AIRPORT|KTS|AK|BREVIG MISSION|BREVIG MISSION|38.1|344|65.3313333333333|-166.465722222222
AIRPORT|AK98|AK|BUCK CREEK|BUCK CREEK|560||65.6386719444445|-167.485806944444
AIRPORT|BVK|AK|BUCKLAND|BUCKLAND|29|184|65.9815555555556|-161.149138888889
AIRPORT|AK75|AK|CANDLE|CANDLE 2|15||65.9076580555556|-161.926305833333
AIRPORT|TTW|AK|CANTWELL|CANTWELL|2190||63.3912047222222|-148.955616388889
AIRPORT|15AK|AK|CANTWELL|GOLDEN NORTH AIRFIELD|2250|6|63.37065|-148.850336111111
HELIPORT|CDE|AK|CAPE DECISION|CAPE DECISION LIGHTHOUSE|34||56.0021130555556|-134.135339166667
AIRPORT|LUR|AK|CAPE LISBURNE|CAPE LISBURNE LRRS|14||68.8751277777778|-166.111081944444
AIRPORT|EHM|AK|CAPE NEWENHAM|CAPE NEWENHAM LRRS|531||58.64815|-162.063802777778
SEAPLANE BASE|Z71|AK|CAPE POLE|CAPE POLE|0||55.96629|-133.796721111111
AIRPORT|CZF|AK|CAPE ROMANZOF|CAPE ROMANZOF LRRS|467||61.7810152777778|-166.039576388889
AIRPORT|26AK|AK|CAPE SARICHEF|CAPE SARICHEF|291||54.5824311111111|-164.914480833333
HELIPORT|CSP|AK|CAPE SPENCER|CAPE SPENCER C G|84||58.1992388888889|-136.639930555556
AIRPORT|CEM|AK|CENTRAL|CENTRAL|936.8|97|65.5739444444445|-144.780888888889
AIRPORT|CIK|AK|CHALKYITSIK|CHALKYITSIK|548.5||66.6450277777778|-143.739888888889
AIRPORT|5CD|AK|CHANDALAR CAMP|CHANDALAR SHELF|3222||68.0654394444444|-149.579739166667
AIRPORT|WCR|AK|CHANDALAR LAKE|CHANDALAR LAKE|1920|211|67.5045166666667|-148.483222222222
SEAPLANE BASE|05AA|AK|CHATHAM|CHATHAM|0||57.5149383333333|-134.946215
AIRPORT|CFK|AK|CHEFORNAK|CHEFORNAK|54.1||60.1368055555556|-164.279055555556
AIRPORT|AK13|AK|CHENA HOT SPRINGS|CHENA HOT SPRINGS|1195||65.0518255555556|-146.047431944444
AIRPORT|C05|AK|CHENEGA|CHENEGA BAY|68.9|123|60.0785611111111|-147.994734722222
AIRPORT|VAK|AK|CHEVAK|CHEVAK|48||61.5408333333333|-165.600888888889
AIRPORT|48AK|AK|CHICKALOON|CASTLE MOUNTAIN AIRSTRIP|1010||61.7930888888889|-148.492496111111
AIRPORT|CKX|AK|CHICKEN|CHICKEN|1640|68|64.0667513888889|-141.951347222222
SEAPLANE BASE|Z78|AK|CHIGNIK|CHIGNIK BAY|0||56.2956105555556|-158.401479722222
AIRPORT|KCL|AK|CHIGNIK LAGOON|CHIGNIK LAGOON|27.7||56.3109666666667|-158.534486111111
AIRPORT|AJC|AK|CHIGNIK|CHIGNIK|24||56.3114626388889|-158.373238194444
AIRPORT|A79|AK|CHIGNIK LAKE|CHIGNIK LAKE|50||56.2554569444444|-158.777831944444
AIRPORT|CZN|AK|CHISANA|CHISANA|3348||62.07175|-142.04935
AIRPORT|CZO|AK|CHISTOCHINA|CHISTOCHINA|1860.7||62.5623333333333|-144.672444444444
AIRPORT|CXC|AK|CHITINA|CHITINA|556||61.5832027777778|-144.429802777778
AIRPORT|9A3|AK|CHUATHBALUK|CHUATHBALUK|243.7|138|61.5790555555556|-159.215638888889
AIRPORT|AK24|AK|CHUGIAK|HILLTOP|420||61.4178611111111|-149.439488888889
AIRPORT|CRC|AK|CIRCLE|CIRCLE CITY|613.2|324|65.8279166666667|-144.076197222222
AIRPORT|CHP|AK|CIRCLE HOT SPRINGS|CIRCLE HOT SPRINGS|870.2|37|65.4859069444445|-144.611684722222
SEAPLANE BASE|96AK|AK|CLAM GULCH|HACKNEY LANDING|208||60.2877833333333|-151.346122222222
AIRPORT|CLP|AK|CLARKS POINT|CLARKS POINT|79.6|114|58.8336944444444|-158.529388888889
AIRPORT|Z84|AK|CLEAR|CLEAR|559.4|1127|64.3003888888889|-149.116527777778
AIRPORT|CLF|AK|CLEAR|CLEAR SKY LODGE|650||64.2570341666667|-149.186250277778
SEAPLANE BASE|KCC|AK|COFFMAN COVE|COFFMAN COVE|0||56.0148038888889|-132.8339225
AIRPORT|CDB|AK|COLD BAY|COLD BAY|99.5|2213|55.2059166666667|-162.72625
SEAPLANE BASE|Z87|AK|COLD BAY|BLINN LAKE|50||55.2516272222222|-162.753404444444
AIRPORT|1AK3|AK|COLD BAY|PORT MOLLER|20|369|56.0059858333333|-160.560791944444
AIRPORT|CXF|AK|COLDFOOT|COLDFOOT|1049.1|288|67.2521944444444|-150.203888888889
AIRPORT|KCR|AK|COLORADO CREEK|COLORADO CREEK|860||63.5677230555556|-155.989043611111
AIRPORT|JLA|AK|COOPER LANDING|QUARTZ CREEK|466|106|60.4842638888889|-149.7229
AIRPORT|Z93|AK|COPPER CENTER|COPPER CENTER 2|1150||61.94119|-145.294080833333
AIRPORT|CDV|AK|CORDOVA|MERLE K (MUDHOLE) SMITH|53.6|2959|60.4917777777778|-145.477555555556
AIRPORT|AK30|AK|CORDOVA|STRAWBERRY POINT|50||60.3911527777778|-146.097463888889
AIRPORT|CKU|AK|CORDOVA|CORDOVA MUNI|59||60.5436444444444|-145.725854166667
AIRPORT|K29|AK|COUNCIL|COUNCIL|100|114|64.8967472222222|-163.703498611111
SEAPLANE BASE|CGA|AK|CRAIG|CRAIG|0||55.4788313888889|-133.147801111111
SEAPLANE BASE|5C5|AK|CRAIG|EL CAPITAN LODGE|0||55.9585888888889|-133.253372222222
HELIPORT|1AK0|AK|CRAIG|CRAIG CG|20||55.4752202777778|-133.145856388889
AIRPORT|1AK1|AK|CREVICE CREEK|CREVICE CREEK|840|20|67.3728722222222|-152.016077777778
AIRPORT|CJX|AK|CROOKED CREEK|CROOKED CREEK|180.6|94|61.8678888888889|-158.134944444444
AIRPORT|01AA|AK|CROOKED CREEK|DONLIN CREEK|733.7|20|62.0324763888889|-158.236404166667
AIRPORT|1AK2|AK|CROSSWIND LAKE|CROSSWIND LAKE|2125||62.4009419444444|-146.013304722222
AIRPORT|DCK|AK|DAHL CREEK|DAHL CREEK|260|13|66.9425614166667|-156.891368638889
AIRPORT|SCC|AK|DEADHORSE|DEADHORSE|67.4|6506|70.1947541111111|-148.465164861111
AIRPORT|AK15|AK|DEADHORSE|ALPINE AIRSTRIP|21.4||70.3442777777778|-150.94475
AIRPORT|AK78|AK|DEADHORSE|BADAMI|25.5||70.1374666666667|-147.030438888889
HELIPORT|AA03|AK|DEADHORSE|CENTRAL PAD|9.3||70.1712846111111|-146.258569638889
AIRPORT|37AA|AK|DEADHORSE|POINT THOMSON AIRSTRIP|56|44|70.136|-146.290027777778
AIRPORT|4AK1|AK|DEADHORSE|INIGOK|191||70.0038306944444|-153.077568194444
AIRPORT|DEE|AK|DEERING|DEERING|29.9|262|66.0691111111111|-162.767055555556
AIRPORT|BIG|AK|DELTA JUNCTION FT GREELY|ALLEN AAF|1285||63.9951666666667|-145.720055555556
AIRPORT|11AK|AK|DELTA JUNCTION|ROCKING T RANCH|1190||63.9996058333333|-145.502317777778
AIRPORT|D66|AK|DELTA JUNCTION|DELTA JUNCTION|1150|80|64.0501166666667|-145.722465277778
AIRPORT|AA22|AK|DELTA JUNCTION|DELTA DAVES|1050||64.1328583333333|-145.804494444444
AIRPORT|29AK|AK|DELTA JUNCTION|REMINGTON FIELD|1250||64.0496094444444|-145.418991666667
AIRPORT|45AK|AK|DELTA JUNCTION|CHEROKEE|1300||63.9618288888889|-145.470091944444
AIRPORT|AK09|AK|DELTA JUNCTION|WINGSONG ESTATES|1100|10|64.0496066666667|-145.502324166667
AIRPORT|9AK4|AK|DELTA JUNCTION|ARCTIC ANGEL|1009|19|64.1373611111111|-145.830388888889
HELIPORT|AK35|AK|DELTA JUNCTION|BUFFALO ROW|1180||64.0388625|-145.738947222222
HELIPORT|72AK|AK|DELTA JUNCTION|TROPHY LODGE|1200||64.0271088888889|-145.680174444444
AIRPORT|AK77|AK|DELTA JUNCTION|ALL WEST|1275||63.9414277777778|-145.422225
AIRPORT|76AK|AK|DELTA JUNCTION|POGO MINE AIRSTRIP|1350||64.4674638888889|-144.920891666667
AIRPORT|DLG|AK|DILLINGHAM|DILLINGHAM|82|620|59.0446666666667|-158.5055
AIRPORT|AK21|AK|DILLINGHAM|NUSHAGAK|40||59.1325833333333|-157.777180555556
SEAPLANE BASE|AA15|AK|DILLINGHAM|SHANNONS POND|80||59.0589755555556|-158.57719
HELIPORT|DM2|AK|DIOMEDE|DIOMEDE|20||65.7586111111111|-168.953055555556
AIRPORT|AK23|AK|DUTCH HARBOR|DRIFTWOOD BAY AIR FORCE STATION|24|459|53.9719805555556|-166.857405555556
AIRPORT|EAA|AK|EAGLE|EAGLE|907.2|87|64.7780833333333|-141.149611111111
AIRPORT|47AK|AK|EAGLE RIVER|HIGHLAND|650||61.2925|-149.5325
SEAPLANE BASE|D72|AK|EAGLE RIVER|D&C FIRE LAKE FLYING CLUB|295||61.3525194444444|-149.54635
AIRPORT|EEK|AK|EEK|EEK|26.5||60.2136944444444|-162.043888888889
AIRPORT|EII|AK|EGEGIK|EGEGIK|92.3||58.1854902777778|-157.375427777778
AIRPORT|KKU|AK|EKUK|EKUK|30||58.8111925|-158.5588425
AIRPORT|KEK|AK|EKWOK|EKWOK|141|148|59.3568333333333|-157.471138888889
HELIPORT|ERO|AK|ELDRED ROCK|ELDRED ROCK CG|33||58.9716805555556|-135.222025
SEAPLANE BASE|ELV|AK|ELFIN COVE|ELFIN COVE|0||58.1951841666667|-136.347392777778
AIRPORT|ELI|AK|ELIM|ELIM|161.5|181|64.6149722222222|-162.270527777778
AIRPORT|MOS|AK|ELIM|MOSES POINT|14||64.6981819444444|-162.057299166667
SEAPLANE BASE|1Z9|AK|ELLAMAR|ELLAMAR|0||60.8939077777778|-146.703691944444
AIRPORT|ENM|AK|EMMONAK|EMMONAK|16.2||62.7861388888889|-164.49075
AIRPORT|3AK1|AK|EUREKA|SKELTON|3289||61.9379833333333|-147.170080555556
AIRPORT|2Z2|AK|EUREKA CREEK|EUREKA CREEK|700||65.1759113888889|-150.220538611111
AIRPORT|2Z3|AK|EVA CREEK|EVA CREEK|2817||64.0421111111111|-148.863138888889
SEAPLANE BASE|EXI|AK|EXCURSION INLET|EXCURSION INLET|0||58.4204986111111|-135.449032777778
SEAPLANE BASE|2Z5|AK|FAIRBANKS|CHENA RIVER|440||64.8328994444444|-147.848258333333
AIRPORT|AK28|AK|FAIRBANKS|CHENA MARINA|427||64.8140277777778|-147.918555555556
AIRPORT|AK22|AK|FAIRBANKS|LAKLOEY AIR PARK|475|35|64.8216666666667|-147.521666666667
AIRPORT|32AK|AK|FAIRBANKS|HARDROCK FIELD|664|30|64.9092861111111|-147.913961111111
AIRPORT|25AA|AK|FAIRBANKS|SKYFLIGHT|1100|6|64.9286583333333|-147.880572222222
AIRPORT|MTF|AK|FAIRBANKS|METRO FLD|432|13|64.80679|-147.762421111111
AIRPORT|31AK|AK|FAIRBANKS|"DALRYMPLE'S"|450||64.8329077777778|-147.424643333333
AIRPORT|AK52|AK|FAIRBANKS|"MOEN'S RANCH"|582|20|64.8888888888889|-147.535594444444
AIRPORT|FBK|AK|FAIRBANKS/FT WAINWRIGHT|LADD AAF|448.6||64.8376097222222|-147.614491666667
AIRPORT|2AK1|AK|FAIRBANKS /FT WAINWRIGHT/|BLAIR LAKE|910||64.3637391666667|-147.363758055556
AIRPORT|2AK2|AK|FAIRBANKS /FT WAINWRIGHT/|CLEAR CREEK|660||64.4534586111111|-147.563491944444
AIRPORT|AK7|AK|FAIRBANKS|GOLD KING CREEK|1720|30|64.1980555555556|-147.928611111111
AIRPORT|EIL|AK|FAIRBANKS|EIELSON AFB|547.5||64.6656444444445|-147.101438888889
AIRPORT|83AK|AK|FAIRBANKS|TOLOVANA HOT SPRINGS|800||65.2565|-148.830255555556
AIRPORT|FAI|AK|FAIRBANKS|FAIRBANKS INTL|439|3470|64.8151111111111|-147.856444444444
SEAPLANE BASE|2Z6|AK|FALSE ISLAND|FALSE ISLAND|0||57.5321544444444|-135.213451111111
AIRPORT|KFP|AK|FALSE PASS|FALSE PASS|18.3|66|54.8478611111111|-163.407111111111
AIRPORT|0AA4|AK|FAREWELL|FAREWELL|1535|3039|62.5091833333333|-153.890626388889
AIRPORT|TNW|AK|FAREWELL LAKE|TIN CREEK|1185|12|62.5321222222222|-153.612788888889
SEAPLANE BASE|FKK|AK|FAREWELL LAKE|FAREWELL LAKE|1052||62.5424538888889|-153.62251
AIRPORT|3Z1|AK|FEATHER RIVER|FEATHER RIVER|325||64.8317272222222|-166.131522222222
HELIPORT|2AK3|AK|FIVE FINGER|FIVE FINGER CG|48||57.2699363888889|-133.631451388889
AIRPORT|FLT|AK|FLAT|FLAT|309||62.4526488888889|-157.98907
HELIPORT|8AK0|AK|FORT WAINWRITE|BACH HELIPAD|453.1||64.8308555555556|-147.660455555556
AIRPORT|FYU|AK|FORT YUKON|FORT YUKON|447.2|261|66.5724166666667|-145.246333333333
SEAPLANE BASE|FNR|AK|FUNTER BAY|FUNTER BAY|0||58.2543858333333|-134.897906666667
AIRPORT|GBH|AK|GALBRAITH LAKE|GALBRAITH LAKE|2662.7||68.4796666666667|-149.489916666667
AIRPORT|GAL|AK|GALENA|EDWARD G PITKA SR|153.9|1250|64.7361965277778|-156.934958722222
AIRPORT|GAM|AK|GAMBELL|GAMBELL|29.4|200|63.7666111111111|-171.732777777778
HELIPORT|AK42|AK|GIRDWOOD|ALYESKA RESORT|283|2|60.97|-149.101388888889
AIRPORT|AQY|AK|GIRDWOOD|GIRDWOOD|164|175|60.9690222222222|-149.119345833333
AIRPORT|KGZ|AK|GLACIER CREEK|GLACIER CREEK|2380||61.4551344444444|-142.380950833333
AIRPORT|5AK4|AK|GLENNALLEN|SNOWSHOE LAKE AIRPORT AND SEAPLANE BASE|2380|7|62.0328055555556|-146.674966666667
SEAPLANE BASE|3Z8|AK|GOLDEN HORN LODGE|GOLDEN HORN LODGE|91||59.7470394444444|-158.8747275
AIRPORT|GLV|AK|GOLOVIN|GOLOVIN|61.9|225|64.5504552777778|-163.007171388889
AIRPORT|GNU|AK|GOODNEWS|GOODNEWS|18.1||59.1178611111111|-161.573666666667
AIRPORT|Z40|AK|GOOSE BAY|GOOSE BAY|78||61.39465|-149.842269444444
AIRPORT|GSZ|AK|GRANITE MOUNTAIN|GRANITE MOUNTAIN AS|1313||65.4021333333333|-161.281475
AIRPORT|KGX|AK|GRAYLING|GRAYLING|137.5||62.8920853055556|-160.066396888889
AIRPORT|GKN|AK|GULKANA|GULKANA|1586.1|1678|62.1549444444444|-145.454333333333
AIRPORT|8AK1|AK|GULKANA|JACOBUS FIELD|1670||62.2802833333333|-145.362766666667
AIRPORT|GST|AK|GUSTAVUS|GUSTAVUS|36.3|1821|58.4252777777778|-135.707416666667
AIRPORT|HNS|AK|HAINES|HAINES|15.3|124|59.2438291666667|-135.5235375
AIRPORT|18AA|AK|HAINES|18 MEADOWS AERODROME|89|50|59.3132222222222|-135.723222222222
HELIPORT|AA35|AK|HAINES|35 MILE LODGE|690|20|59.4375555555556|-136.229361111111
AIRPORT|9AA9|AK|HAINES|AIRKAT AIRPARK|260|9|59.4030555555556|-136.019444444444
SEAPLANE BASE|3Z9|AK|HAINES|HAINES|0||59.2349511111111|-135.440718055556
HELIPORT|0AA6|AK|HAINES|BIG SALMON|292||59.4030555555556|-136.013611111111
AIRPORT|AK74|AK|HANNUM CREEK|UPPER HANNUM CREEK|1300||65.9048580555556|-163.3290925
SEAPLANE BASE|HWI|AK|HAWK INLET|HAWK INLET|0||58.1274413888889|-134.755953055556
AIRPORT|HRR|AK|HEALY|HEALY RIVER|1275|1294|63.8675833333333|-148.968833333333
HELIPORT|7AK7|AK|HEALY|ERA DENALI|1580|2|63.7384319444445|-148.881749722222
AIRPORT|AK33|AK|HERENDEEN BAY|HERENDEEN BAY|20||55.801395|-160.899254444444
AIRPORT|2AK5|AK|HINCHINBROOK|JOHNSTONE POINT|15||60.481675|-146.5842525
AIRPORT|2AK6|AK|HOGATZA|HOG RIVER|534|10|66.1761333333333|-155.684816666667
SEAPLANE BASE|HYL|AK|HOLLIS|CLARK BAY|0||55.4904166666667|-132.623555555556
AIRPORT|HCA|AK|HOLY CROSS|HOLY CROSS|74.5||62.1883055555556|-159.774944444444
AIRPORT|HOM|AK|HOMER|HOMER|84.3|1040|59.6449949722222|-151.485808416667
SEAPLANE BASE|5BL|AK|HOMER|HOMER-BELUGA LAKE|25||59.6415555555556|-151.521127777778
AIRPORT|AK17|AK|HOMER|GLACIERVIEW STRIP|1600||59.7635647222222|-151.223241944444
AIRPORT|AK18|AK|HOMER|CAMP POINT|8||59.8285491666667|-153.080824722222
AIRPORT|2AK4|AK|HOMER|BOOTLEGGERS COVE|45||59.47|-151.5125
AIRPORT|98AK|AK|HOMER|EASTLAND|1190||59.7758416666667|-151.181630555556
HELIPORT|4AA4|AK|HOMER|SOUTH PENINSULA HOSPITAL|370||59.6522611111111|-151.55
AIRPORT|46AK|AK|HOMER|BEAR COVE FARM|115||59.7382888888889|-151.029894166667
AIRPORT|0AK7|AK|HOMER|BRADLEY LAKE HYDROELECTRIC PROJECT AIRSTRIP|18||59.7760694444444|-150.958513888889
AIRPORT|OL99|AK|HOMER|LOOKOUT|1310|10|59.7034138888889|-151.496458333333
SEAPLANE BASE|OOH|AK|HOONAH|HOONAH|0||58.1121594444444|-135.451805
AIRPORT|HNH|AK|HOONAH|HOONAH|21.5||58.0961991666667|-135.40875625
AIRPORT|HPB|AK|HOOPER BAY|HOOPER BAY|10.2|395|61.5238611111111|-166.146611111111
AIRPORT|5HO|AK|HOPE|HOPE|193.9|62|60.9072527777778|-149.622811111111
AIRPORT|4Z5|AK|HORSFELD|HORSFELD|3620||62.0072333333333|-141.182113888889
AIRPORT|13AK|AK|HOUSTON|SATTERBERGS|350||61.6547|-149.9
AIRPORT|AK29|AK|HOUSTON|REIDS LANDING|246|80|61.6126|-149.852280555556
AIRPORT|AK89|AK|HOUSTON|BLACK SPRUCE|350||61.6563083333333|-149.886722222222
AIRPORT|AA33|AK|HOUSTON|GUS LANDING|120||61.60415|-149.770119444444
AIRPORT|AA30|AK|HOUSTON|TRIO ESTATES|315||61.6481888888889|-149.870830555556
SEAPLANE BASE|80AK|AK|HOUSTON|MORVRO LAKE|300||61.6019694444444|-149.784180555556
AIRPORT|HUS|AK|HUGHES|HUGHES|298.6||66.0390833333333|-154.264694444444
AIRPORT|HLA|AK|HUSLIA|HUSLIA|219.7|203|65.6978611111111|-156.351388888889
SEAPLANE BASE|HYG|AK|HYDABURG|HYDABURG|0||55.2063161111111|-132.828313055556
SEAPLANE BASE|4Z7|AK|HYDER|HYDER|0||55.9033197222222|-130.006703055556
AIRPORT|19AK|AK|ICY BAY|ICY BAY|50||59.9690188888889|-141.661770277778
AIRPORT|2AK8|AK|ICY CAPE|ICY CAPE AFS|48||70.2924891666667|-161.903334166667
AIRPORT|IGG|AK|IGIUGIG|IGIUGIG|90.4|117|59.3240416666667|-155.901772777778
AIRPORT|ILI|AK|ILIAMNA|ILIAMNA|192.4||59.7555781111111|-154.91775225
AIRPORT|2AK9|AK|INDEPENDENCE CREEK|INDEPENDENCE CREEK|250||65.6734772222222|-162.464062777778
SEAPLANE BASE|KIB|AK|IVANOF BAY|IVANOF BAY|0||55.8975333333333|-159.488668888889
AIRPORT|4Z9|AK|JAKOLOF BAY|JAKOLOF BAY|5||59.4521605555556|-151.522381111111
AIRPORT|AK60|AK|JENSENS|FORT JENSEN|240||57.8850997222222|-157.096820277778
AIRPORT|JNU|AK|JUNEAU|JUNEAU INTL|25.3|662|58.3547118055556|-134.578470527778
HELIPORT|AK94|AK|JUNEAU|ALASCOM/COASTAL LENA POINT|150|1|58.3907805555556|-134.7768
HELIPORT|AA44|AK|JUNEAU|BARLETT REGIONAL HOSPITAL|296||58.3287027777778|-134.465711111111
SEAPLANE BASE|5Z1|AK|JUNEAU|JUNEAU HARBOR|0||58.2988888888889|-134.407777777778
HELIPORT|73AK|AK|JUNEAU|YANKEE COVE|0||58.5916666666667|-134.9
HELIPORT|18AK|AK|JUNEAU|NORTH DOUGLAS|25||58.3321736111111|-134.497053333333
SEAPLANE BASE|KAE|AK|KAKE|KAKE|0||56.9729963888889|-133.945614722222
AIRPORT|AFE|AK|KAKE|KAKE|171.5||56.9613625|-133.910261111111
AIRPORT|8AK7|AK|KAKTOVIK|BULLEN POINT AIR FORCE STATION|18|605|70.1727777777778|-146.836111111111
AIRPORT|1KC|AK|KALAKAKET CREEK|KALAKAKET CREEK AS|1598||64.4244472222222|-156.843338888889
AIRPORT|KLG|AK|KALSKAG|KALSKAG|63.3|160|61.5359722222222|-160.345583333333
AIRPORT|KAL|AK|KALTAG|KALTAG|181.1|292|64.31898|-158.741305833333
HELIPORT|5Z4|AK|KANAKANAK|ANS HOSPITAL|100|1|59.0017527777778|-158.532464444444
AIRPORT|5Z5|AK|KANTISHNA|KANTISHNA|1578|6|63.5409861111111|-150.995077777778
AIRPORT|Z90|AK|KANTISHNA|STAMPEDE|1852||63.7512055555556|-150.330263888889
AIRPORT|KYK|AK|KARLUK|KARLUK|141.9||57.5660555555556|-154.453805555556
SEAPLANE BASE|KKL|AK|KARLUK LAKE|KARLUK LAKE|368||57.3670358333333|-154.027591111111
SEAPLANE BASE|KXA|AK|KASAAN|KASAAN|0||55.5374138888889|-132.397514444444
AIRPORT|Z09|AK|KASIGLUK|KASIGLUK|47.9|106|60.8733333333333|-162.524305555556
AIRPORT|5KS|AK|KASILOF|KASILOF|125|160|60.3505208333333|-151.262856388889
SEAPLANE BASE|AK5|AK|KASILOF|ENCELEWSKI LAKE|230||60.2555555555556|-151.303055555556
SEAPLANE BASE|5Z9|AK|KATMAI NATIONAL PARK|LAKE BROOKS|36||58.5548430555556|-155.7773875
AIRPORT|RK1|AK|KAVIK RIVER|KAVIK STRIP|668||69.6767763888889|-146.900045833333
AIRPORT|ENA|AK|KENAI|KENAI MUNI|99.6|1200|60.5732777777778|-151.244833333333
AIRPORT|3AK5|AK|KENAI|DRIFT RIVER|30|58|60.5888675|-152.161977222222
AIRPORT|8AK2|AK|KENAI|"CARTY'S AIRSTRIP"|150|10|60.7025|-151.294166666667
SEAPLANE BASE|2R3|AK|KENAI|ISLAND LAKE|140||60.7044361111111|-151.311402777778
AIRPORT|30AK|AK|KENAI|DOYLE ESTATES|50||60.5027583333333|-151.260002777778
AIRPORT|3AK4|AK|KENAI|JOHNSON|102||60.6324888888889|-151.340013333333
SEAPLANE BASE|2VI2|AK|KENAI|REDOUBT VIEW SEAPLANE BASE|385||60.4190388888889|-152.354891666667
AIRPORT|6AK3|AK|KENAI|BUTLER AVIATION|185|12|60.7294405555556|-151.278068333333
AIRPORT|AA16|AK|KENAI|TREASURE CHEST|125|9|60.6248083333333|-151.2945
SEAPLANE BASE|03AK|AK|KENAI|JOE CLOUDS|150||60.7272222222222|-151.132777777778
AIRPORT|75AK|AK|KENAI|HENLEY|100||60.5930666666667|-151.327955555556
HELIPORT|82AK|AK|KENAI|PRL LOGISTICS|28.8||60.5295265|-151.256738055556
AIRPORT|0AA7|AK|KENAI|KALIFONSKY MEADOWS|65|120|60.4915388888889|-151.235252777778
SEAPLANE BASE|9C0|AK|KETCHIKAN|PENINSULA POINT PULLOUT|0||55.3846505555556|-131.738352222222
HELIPORT|17AK|AK|KETCHIKAN|KETCHIKAN /TEMSCO H/|20|16|55.3829841666667|-131.735018333333
AIRPORT|KTN|AK|KETCHIKAN|KETCHIKAN INTL|92.4|2600|55.3540833333333|-131.711222222222
SEAPLANE BASE|5KE|AK|KETCHIKAN|KETCHIKAN HARBOR|0||55.3444638888889|-131.663438888889
SEAPLANE BASE|8K9|AK|KETCHIKAN|MURPHYS PULLOUT|0||55.3896502777778|-131.738074166667
HELIPORT|8AK4|AK|KETCHIKAN|MCCUES|2||55.3674833333333|-131.715811111111
HELIPORT|3AK0|AK|KETCHIKAN|WOLFE POINT|50||55.3625|-131.709444444444
AIRPORT|IAN|AK|KIANA|BOB BAKER MEMORIAL|171.2||66.9759444444444|-160.436527777778
AIRPORT|KVC|AK|KING COVE|KING COVE|155|146|55.1163472222222|-162.266247222222
AIRPORT|AKN|AK|KING SALMON|KING SALMON|73.4|5277|58.6764934722222|-156.648691
AIRPORT|AA05|AK|KING SALMON|UGASHIK NARROWS|20|32|57.5585305555556|-156.787684722222
AIRPORT|IIK|AK|KIPNUK|KIPNUK|19.5||59.9316111111111|-164.028111111111
SEAPLANE BASE|KKB|AK|KITOI BAY|KITOI BAY|0||58.1909461111111|-152.3704875
AIRPORT|KVL|AK|KIVALINA|KIVALINA|18.4||67.7361388888889|-164.5635
SEAPLANE BASE|AQC|AK|KLAWOCK|KLAWOCK|0||55.5546575|-133.101692777778
AIRPORT|AKW|AK|KLAWOCK|KLAWOCK|79.7||55.5792222222222|-133.076
AIRPORT|OBU|AK|KOBUK|KOBUK|142.2|167|66.9123333333333|-156.897333333333
AIRPORT|KDK|AK|KODIAK|KODIAK MUNI|139||57.8059175|-152.373841388889
SEAPLANE BASE|9Z3|AK|KODIAK|KODIAK /LILLY LAKE/|130||57.8025838888889|-152.382731666667
AIRPORT|ADQ|AK|KODIAK|KODIAK|78.8||57.7497922222222|-152.493943666667
SEAPLANE BASE|T44|AK|KODIAK|TRIDENT BASIN|0||57.7808333333333|-152.391388888889
AIRPORT|9K2|AK|KOKHANOK|KOKHANOK|114.7|111|59.4332861111111|-154.802591666667
AIRPORT|JZZ|AK|KOLIGANEK|KOLIGANEK|271.8|112|59.72675|-157.26025
AIRPORT|DUY|AK|KONGIGANAK|KONGIGANAK|32.7|134|59.9616308333333|-162.880593888889
AIRPORT|2A9|AK|KOTLIK|KOTLIK|13.6|185|63.0305833333333|-163.532638888889
AIRPORT|OTZ|AK|KOTZEBUE|RALPH WIEN MEMORIAL|15.4|1480|66.8848055555556|-162.598138888889
AIRPORT|KKA|AK|KOYUK|KOYUK ALFRED ADAMS|161.5|132|64.9395277777778|-161.154277777778
AIRPORT|KYU|AK|KOYUKUK|KOYUKUK|148.9|287|64.8758055555556|-157.730444444444
AIRPORT|LKK|AK|KULIK LAKE|KULIK LAKE|717||58.9650055555555|-155.0956125
AIRPORT|UBW|AK|KUPARUK|UGNU-KUPARUK|75||70.3306666666667|-149.598055555556
HELIPORT|27AK|AK|KUPARUK|PAD-66|60||70.3430416666667|-149.589063888889
HELIPORT|AA38|AK|KUPARUK|NIKAITCHUQ OPERATIONS CENTER|20|1|70.4824805555556|-149.853233333333
HELIPORT|AA51|AK|KUPARUK|SPY ISLAND DRILL-SITE|21|1|70.55625|-149.910527777778
AIRPORT|KWT|AK|KWETHLUK|KWETHLUK|25.3||60.7903333333333|-161.443694444444
AIRPORT|GGV|AK|KWIGILLINGOK|KWIGILLINGOK|21.4|379|59.8755847222222|-163.1680375
AIRPORT|Z55|AK|LAKE LOUISE|LAKE LOUISE|2480.2||62.2916180555556|-146.57735
SEAPLANE BASE|13S|AK|LAKE LOUISE|LAKE LOUISE|2362||62.2828552777778|-146.518866944444
AIRPORT|AK80|AK|LAKE LOUISE|RED CREEK|3530||62.2911111111111|-147.406944444444
AIRPORT|2A3|AK|LARSEN BAY|LARSEN BAY|86.7||57.5350833333333|-153.976666666667
AIRPORT|9Z9|AK|LAWING|LAWING|484|21|60.4118847222222|-149.369341666667
SEAPLANE BASE|ALZ|AK|LAZY BAY|ALITAK|0||56.8994872222222|-154.247846666667
AIRPORT|9Z8|AK|LEVELOCK|LEVELOCK|55.8|195|59.1270833333333|-156.859888888889
AIRPORT|2AK|AK|LIME VILLAGE|LIME VILLAGE|545||61.3591305555556|-155.440386111111
AIRPORT|AK53|AK|LIME VILLAGE|STONY MOUNTAIN LODGE|1197||61.2570891666667|-153.797883055556
AIRPORT|4AK|AK|LIVENGOOD|LIVENGOOD CAMP|427.5||65.4672694444445|-148.653747222222
AIRPORT|AK71|AK|LONELY|LONELY AS|17||70.9107452777778|-153.242215
AIRPORT|4AK3|AK|LONG LAKE|LONG LAKE|1500||61.3778825|-143.325958333333
SEAPLANE BASE|13Z|AK|LORING|LORING|0||55.6013058333333|-131.636683055556
AIRPORT|15Z|AK|MCCARTHY|MCCARTHY|1532.8||61.4378190833333|-142.902503
AIRPORT|AK31|AK|MCCARTHY|SWIFT CREEK|1225|27|61.4112244444444|-143.001235
AIRPORT|0AK8|AK|MCCARTHY|FIREWEED|1320||61.4268777777778|-142.978833333333
AIRPORT|AK0|AK|MCCARTHY|JAKES BAR|1074||61.2188722222222|-142.891211111111
AIRPORT|56AK|AK|MCGRATH|HINKES|1200|25|62.5453888888889|-154.002111111111
AIRPORT|MCG|AK|MCGRATH|MC GRATH|342.7|641|62.9527839166667|-155.607048055556
AIRPORT|AK40|AK|MCGRATH|NIXON FORK MINE|1510|32|63.2291805555556|-154.760336111111
SEAPLANE BASE|16Z|AK|MCGRATH|MC GRATH|325||62.957985|-155.593179166667
AIRPORT|INR|AK|MCKINLEY PARK|MC KINLEY NATIONAL PARK|1720||63.7325983333333|-148.910638333333
AIRPORT|AK06|AK|MCKINLEY PARK|DENALI|2050||63.6450994444444|-148.798130555556
AIRPORT|4AK5|AK|MANKOMEN LAKE|MANKOMEN LAKE|3050||62.9898822222222|-144.479998888889
AIRPORT|MLY|AK|MANLEY HOT SPRINGS|MANLEY HOT SPRINGS|275.3|300|64.9879444444445|-150.647583333333
AIRPORT|MBA|AK|MANOKOTAK|MANOKOTAK|106.6|330|58.9320555555556|-158.901888888889
AIRPORT|MDM|AK|MARSHALL|MARSHALL DON HUNTER SR|115.3|400|61.8641666666667|-162.026111111111
AIRPORT|MYK|AK|MAY CREEK|MAY CREEK|1681||61.3361611111111|-142.685886111111
AIRPORT|0AK5|AK|MAY CREEK|YOUNG CREEK|1580||61.3565138888889|-142.733444444444
AIRPORT|24AK|AK|MEADOW LAKES|TOAD LAKE STRIP|100|55|61.61575|-149.706930555556
AIRPORT|MYU|AK|MEKORYUK|MEKORYUK|53.3|575|60.3723888888889|-166.270194444444
SEAPLANE BASE|MTM|AK|METLAKATLA|METLAKATLA|0||55.1310452777778|-131.5780675
SEAPLANE BASE|84K|AK|MEYERS CHUCK|MEYERS CHUCK|0||55.7396361111111|-132.255018333333
AIRPORT|MDO|AK|MIDDLETON ISLAND|MIDDLETON ISLAND|100.4|5500|59.4499436111111|-146.307240555556
AIRPORT|MHM|AK|MINCHUMINA|MINCHUMINA|681.8|674|63.8859722222222|-152.301833333333
AIRPORT|51Z|AK|MINTO|MINTO AL WRIGHT|499.8|295|65.1481666666667|-149.368583333333
AIRPORT|0AK3|AK|MONTANA CREEK|PARKER LAKE|250|5|62.034825|-150.491044444444
AIRPORT|99AK|AK|MOORE CREEK|MOORE CREEK|980||62.5990427777778|-157.151805833333
SEAPLANE BASE|52Z|AK|MOOSE PASS|SUMMIT LAKE|1300||60.6410811111111|-149.497134444444
SEAPLANE BASE|KMY|AK|MOSER BAY|MOSER BAY|0||57.0255855555556|-154.145918611111
AIRPORT|MOU|AK|MOUNTAIN VILLAGE|MOUNTAIN VILLAGE|339.1||62.0947777777778|-163.682861111111
AIRPORT|IBN|AK|NABESNA|DEVILS MOUNTAIN LODGE|2880||62.4018461111111|-142.995468055556
AIRPORT|76Z|AK|NAKEEN|NAKEEN|50||58.927605|-157.047152222222
AIRPORT|5NK|AK|NAKNEK|NAKNEK|70|84|58.7346628611111|-157.025210416667
AIRPORT|4AK9|AK|NAKNEK|TIBBETTS|50|19|58.7342697222222|-157.007141944444
SEAPLANE BASE|78Z|AK|NANCY LAKE|NANCY LAKE|214||61.7033194444444|-150.007138888889
AIRPORT|KEB|AK|NANWALEK|NANWALEK|27|14|59.3521483333333|-151.925155833333
AIRPORT|AK07|AK|NANWALEK|DOG FISH BAY|10|9|59.2409991666667|-151.877115277778
AIRPORT|4AK8|AK|NAPAIMUTE|NAPAIMUTE PIONEER AIRFIELD|200|10|61.5363138888889|-158.738963888889
AIRPORT|WNA|AK|NAPAKIAK|NAPAKIAK|16.9||60.6903333333333|-161.9785
AIRPORT|PKA|AK|NAPASKIAK|NAPASKIAK|24||60.7029166666667|-161.778305555556
AIRPORT|OUL|AK|NELSON LAGOON|NELSON LAGOON|14||56.0075361111111|-161.160367222222
AIRPORT|ENN|AK|NENANA|NENANA MUNI|368|1030|64.5473291944444|-149.073975194444
AIRPORT|KNW|AK|NEW STUYAHOK|NEW STUYAHOK|370.7||59.4515277777778|-157.373166666667
AIRPORT|EWU|AK|NEWTOK|NEWTOK|25||60.9391388888889|-164.64125
SEAPLANE BASE|WWT|AK|NEWTOK|NEWTOK|6||60.9236541666667|-164.656213888889
AIRPORT|AK11|AK|NIKISKI|HIGH VISTA|200|160|60.7731666666667|-151.230527777778
AIRPORT|IGT|AK|NIGHTMUTE|NIGHTMUTE|7.1||60.4691708333333|-164.7040375
HELIPORT|1AK5|AK|NIKISKI|OFFSHORE SYSTEMS-KENAI|150||60.7397222222222|-151.308333333333
AIRPORT|AK73|AK|NIKISHKA|MCGAHAN INDUSTRIAL AIRPARK|150|20|60.7252736111111|-151.302236111111
AIRPORT|FSP|AK|NIKOLAI|NIKOLAI|447.5|76|63.0185555555556|-154.358444444444
AIRPORT|IKO|AK|NIKOLSKI|NIKOLSKI AS|76.6||52.9415555555556|-168.849027777778
AIRPORT|NIN|AK|NINILCHIK|NINILCHIK|276|50|60.0202341666667|-151.589418611111
AIRPORT|WTK|AK|NOATAK|NOATAK|91.6||67.5611666666667|-162.980416666667
AIRPORT|94Z|AK|NOME|NOME CITY FIELD|69||64.5114222777778|-165.390230222222
AIRPORT|OME|AK|NOME|NOME|40.6||64.5125555555556|-165.444388888889
AIRPORT|5NN|AK|NONDALTON|NONDALTON|314|114|59.9802302777778|-154.839174722222
AIRPORT|D76|AK|NOORVIK|ROBERT/BOB/CURTIS MEMORIAL|54.5|311|66.8175277777778|-161.02225
AIRPORT|0AK0|AK|NORTH POLE|SCOTTS|800||64.3925|-146.862083333333
AIRPORT|95Z|AK|NORTH POLE|BRADLEY SKY-RANCH|483||64.7592222222222|-147.387638888889
AIRPORT|5AK2|AK|NORTH POLE|HOWARDS|490||64.7306866666667|-147.347686666667
AIRPORT|5AK3|AK|NORTH POLE|AIRWAY|480||64.7731872222222|-147.333802222222
AIRPORT|AK41|AK|NORTH POLE|"GREG'N SAGE"|925||64.5438888888889|-146.844166666667
AIRPORT|AA76|AK|NORTH POLE|TIMBER TRAILS|480||64.7694444444444|-147.329444444444
AIRPORT|78AA|AK|NORTH POLE|LAKEWOOD|540||64.7717611111111|-147.246691666667
AIRPORT|ORT|AK|NORTHWAY|NORTHWAY|1720.1|1150|62.9611666666667|-141.928083333333
AIRPORT|33AK|AK|NUGGET BENCH|NUGGET BENCH|2010||62.5172561111111|-150.945341666667
AIRPORT|AQT|AK|NUIQSUT|NUIQSUT|45.4||70.2098333333333|-151.006472222222
HELIPORT|AK32|AK|NUIQSUT|OOOGURUK ISLAND|27||70.4954222222222|-150.253466666667
AIRPORT|AK20|AK|NUIQSUT|CD-3 AIRSTRIP|7||70.4206222222222|-150.886666666667
HELIPORT|AA27|AK|NUIQSUT|OTP|38||70.4141|-150.018591666667
AIRPORT|NUL|AK|NULATO|NULATO|405.9|146|64.7293333333333|-158.074222222222
AIRPORT|16A|AK|NUNAPITCHUK|NUNAPITCHUK|21.9|100|60.906|-162.440583333333
AIRPORT|ZNC|AK|NYAC|NYAC|460||60.9806552777778|-159.993685
AIRPORT|6R7|AK|OLD HARBOR|OLD HARBOR|55||57.2183055555556|-153.269831944444
SEAPLANE BASE|KOY|AK|OLGA BAY|OLGA BAY|0||57.1614525|-154.229793333333
AIRPORT|Z17|AK|OPHIR|OPHIR|595||63.1459194444444|-156.528908333333
AIRPORT|4K5|AK|OUZINKIE|OUZINKIE|99.8|170|57.9421551666667|-152.464993055556
AIRPORT|PAQ|AK|PALMER|"WARREN ""BUD"" WOODS PALMER MUNI"|248.6||61.5949166666667|-149.088722222222
AIRPORT|3AK2|AK|PALMER|NIKLASON LAKE ESTATES|410||61.6275|-149.286730555556
AIRPORT|AK46|AK|PALMER|ABI|750||61.6288305555556|-149.043188888889
AIRPORT|05AK|AK|PALMER|WASILLA CREEK AIRPARK|620|100|61.6686611111111|-149.187388888889
AIRPORT|AK63|AK|PALMER|PAT-MAR STRIP|246||61.5886111111111|-149.1425
AIRPORT|AK66|AK|PALMER|HUNTER CREEK|100||61.4576333333333|-148.795358333333
AIRPORT|5AK6|AK|PALMER|COLBERG|125||61.5570111111111|-149.268288888889
HELIPORT|03AA|AK|PALMER|TRAPPER T|159|1|61.5560555555556|-149.284527777778
AIRPORT|4AK6|AK|PALMER|WOLF LAKE|540|96|61.6409694444444|-149.28875
AIRPORT|34AK|AK|PALMER|CARDWELL STRIP|425||61.6250388888889|-149.288580555556
AIRPORT|39AK|AK|PALMER|GILMORE STRIP|340||61.5860277777778|-149.235980555556
AIRPORT|AK93|AK|PALMER|GROUSE RIDGE|535||61.6551805555556|-149.273488888889
AIRPORT|14AK|AK|PALMER|FOUR CORNERS|300||61.6024666666667|-149.248
SEAPLANE BASE|2D3|AK|PALMER|GOODING LAKE|500||61.6277194444444|-149.239069444444
SEAPLANE BASE|9AK1|AK|PALMER|STORMY HILL|500||61.6308694444444|-149.231788888889
AIRPORT|AK88|AK|PALMER|EAGLE NEST|416||61.6046972222222|-149.040188888889
AIRPORT|97AK|AK|PALMER|HIGH RIDGE ASSOCIATION|720||61.664|-149.2536
AIRPORT|AK92|AK|PALMER|MARTIN|820||61.6380111111111|-149.028911111111
AIRPORT|AK50|AK|PALMER|SKY RANCH AT PIONEER PEAK|120|140|61.5545694444444|-149.144444444444
SEAPLANE BASE|AA85|AK|PALMER|WALBY LAKE|114||61.6164194444444|-149.221030555556
SEAPLANE BASE|99Z|AK|PALMER|FINGER LAKE|337||61.6092361111111|-149.263541666667
AIRPORT|3AK6|AK|PALMER|B & B BOYS RANCH|300||61.59295|-149.268938888889
AIRPORT|AK1|AK|PALMER|BUTTE MUNI|64||61.5303152777778|-149.017636111111
AIRPORT|5AK9|AK|PALMER|GRANDVIEW SUBDIVISION|150|7|61.5485194444444|-149.190311111111
AIRPORT|7AK9|AK|PALMER|VINDUSKA|700|20|61.6468305555556|-149.048538888889
HELIPORT|92AK|AK|PALMER|MAT-SU RGNL MEDICAL CENTER|145||61.5622444444444|-149.260325
AIRPORT|9AA1|AK|PALMER|ELK RANCH|800|315|61.6820305555556|-149.290736111111
HELIPORT|AA08|AK|PALMER|ALASKA HELIWORX|250||61.5947222222222|-149.153888888889
AIRPORT|PXK|AK|PAXSON|PAXSON|2653||63.02458|-145.500550833333
AIRPORT|4K0|AK|PEDRO BAY|PEDRO BAY|83.9|118|59.7969444444444|-154.129972222222
SEAPLANE BASE|PEC|AK|PELICAN|PELICAN|0||57.9551722222222|-136.236273333333
SEAPLANE BASE|PYL|AK|PERRY ISLAND|PERRY ISLAND|0||60.6852869444444|-147.918736111111
AIRPORT|PEV|AK|PERRYVILLE|PERRYVILLE|29.9|149|55.9067236111111|-159.160829166667
SEAPLANE BASE|63A|AK|PETERSBURG|LLOYD R ROUNDTREE SEAPLANE FACILITY|0||56.8113197222222|-132.960056666667
AIRPORT|PSG|AK|PETERSBURG|PETERSBURG JAMES A JOHNSON|113.2||56.8014722222222|-132.946222222222
AIRPORT|PNP|AK|PILOT POINT|PILOT POINT|57||57.5803805555556|-157.571956944444
AIRPORT|UGB|AK|PILOT POINT|UGASHIK BAY|132||57.4253580555556|-157.739865555556
AIRPORT|0AK|AK|PILOT STATION|PILOT STATION|470.2||61.9614736666667|-162.942382305556
AIRPORT|PTU|AK|PLATINUM|PLATINUM|18||59.0178305555556|-161.827191666667
AIRPORT|6AK1|AK|PLATINUM|PLATINUM MINE|100||58.9117158333333|-161.713891666667
SEAPLANE BASE|KPB|AK|POINT BAKER|POINT BAKER|0||56.3518597222222|-133.622586388889
AIRPORT|PHO|AK|POINT HOPE|POINT HOPE|18.7|22|68.34875|-166.799277777778
AIRPORT|PIZ|AK|POINT LAY|POINT LAY LRRS|28.5||69.7328888888889|-163.005333333333
AIRPORT|6AK2|AK|POINT MACKENZIE|SLEEPERS STRIP|125||61.2514805555556|-149.982221111111
AIRPORT|AK14|AK|POINT MACKENZIE|TURINSKY AIRSTRIP|100||61.3533333333333|-150.0825
AIRPORT|50AK|AK|POINT MACKENZIE|"ROBIN'S LANDING"|95||61.3804611111111|-150.11625
AIRPORT|A14|AK|PORTAGE CREEK|PORTAGE CREEK|129||58.906525|-157.711166666667
SEAPLANE BASE|AHP|AK|PORT ALEXANDER|PORT ALEXANDER|0||56.2468422222222|-134.648153888889
SEAPLANE BASE|16K|AK|PORT ALICE|PORT ALICE|0||55.7849052777778|-133.594223611111
AIRPORT|TPO|AK|PORT ALSWORTH|PORT ALSWORTH|280||60.2043333333333|-154.318872777778
AIRPORT|AK51|AK|PORT ALSWORTH|WILDER/NATWICK LLC|288|20|60.1986386111111|-154.324705
SEAPLANE BASE|KPY|AK|PORT BAILEY|PORT BAILEY|0||57.9301111111111|-153.040559166667
AIRPORT|KPC|AK|PORT CLARENCE|PORT CLARENCE CGS|10||65.2534555555556|-166.857627777778
AIRPORT|PGM|AK|PORT GRAHAM|PORT GRAHAM|93|31|59.348475|-151.830322222222
AIRPORT|PTH|AK|PORT HEIDEN|PORT HEIDEN|95.3|3500|56.9591011111111|-158.633361944444
AIRPORT|ORI|AK|PORT LIONS|PORT LIONS|42|32|57.884925|-152.847572222222
SEAPLANE BASE|19P|AK|PORT PROTECTION|PORT PROTECTION|0||56.3288041666667|-133.610084444444
SEAPLANE BASE|PWR|AK|PORT WALTER|PORT WALTER|0||56.3810172222222|-134.650931111111
SEAPLANE BASE|KPR|AK|PORT WILLIAMS|PORT WILLIAMS|0||58.4901369444444|-152.582165
AIRPORT|PPC|AK|PROSPECT CREEK|PROSPECT CREEK|1094.7||66.8140555555556|-150.643611111111
HELIPORT|90AK|AK|PRUDHOE BAY/DEADHORSE|NORTHSTAR|10||70.4921|-148.703644444444
AIRPORT|01A|AK|PURKEYPILE|PURKEYPILE|2041|640|62.9407555555556|-152.269609722222
AIRPORT|20K|AK|QUAIL CREEK|QUAIL CREEK|1576||65.3547194444444|-149.761377777778
AIRPORT|5QC|AK|QUARTZ CREEK|QUARTZ CREEK /KOUGAROK/|416||65.4059330555556|-164.655724722222
AIRPORT|AQH|AK|QUINHAGAK|QUINHAGAK|41.9|123|59.7550944444444|-161.845366666667
AIRPORT|6AK|AK|RAINY PASS|RAINY PASS LODGE|1900||62.0841419444444|-152.717524722222
AIRPORT|RMP|AK|RAMPART|RAMPART|306.7||65.5079|-150.140833333333
AIRPORT|RDV|AK|RED DEVIL|RED DEVIL|180.6|311|61.7880555555556|-157.35025
AIRPORT|DGG|AK|RED DOG|RED DOG|969||68.0321111111111|-162.899194444444
AIRPORT|RBY|AK|RUBY|RUBY|657.5||64.7272222222222|-155.469888888889
AIRPORT|RSH|AK|RUSSIAN MISSION|RUSSIAN MISSION|58.3|143|61.7748902777778|-161.319398722222
AIRPORT|9AK2|AK|RUSSIAN MISSION|KAKO|300||61.899|-161.439722222222
SEAPLANE BASE|A23|AK|SAGINAW BAY|SAGINAW|0||56.8863322222222|-134.158387777778
AIRPORT|PBV|AK|ST GEORGE|ST GEORGE|127.9|278|56.5773611111111|-169.663722222222
AIRPORT|KSM|AK|"ST MARY'S"|"ST MARY'S"|312.3|3600|62.0608333333333|-163.301833333333
AIRPORT|SMK|AK|ST MICHAEL|ST MICHAEL|98.2|355|63.4900555555556|-162.110388888889
AIRPORT|SNP|AK|ST PAUL ISLAND|ST PAUL ISLAND|66.4|413|57.1663055555556|-170.222555555556
AIRPORT|Z81|AK|SALMON LAKE|SALMON LAKE|509||64.9090097222222|-165.014716666667
AIRPORT|SDP|AK|SAND POINT|SAND POINT|23.6||55.3136944444444|-160.521416666667
SEAPLANE BASE|WSJ|AK|SAN JUAN|SAN JUAN /UGANIK/|0||57.7303744444444|-153.320597222222
AIRPORT|SVA|AK|SAVOONGA|SAVOONGA|59|834|63.6862777777778|-170.493166666667
AIRPORT|SCM|AK|SCAMMON BAY|SCAMMON BAY|22|103|61.8445416666667|-165.57375
AIRPORT|WLK|AK|SELAWIK|SELAWIK|17.1||66.6001388888889|-159.98575
AIRPORT|8AK3|AK|SELAWIK|ROLAND NORTON MEMORIAL AIRSTRIP|360|12|66.7660436111111|-160.15277
AIRPORT|SOV|AK|SELDOVIA|SELDOVIA|29|177|59.4439055555556|-151.705041666667
SEAPLANE BASE|A27|AK|SELDOVIA|SELDOVIA|0||59.4341052777778|-151.707661111111
AIRPORT|SWD|AK|SEWARD|SEWARD|22.2|302|60.1300805555556|-149.416844444444
HELIPORT|01AK|AK|SEWARD|PROVIDENCE SEWARD MEDICAL CENTER|120||60.1057944444444|-149.446255555556
AIRPORT|SHX|AK|SHAGELUK|SHAGELUK|78.6|148|62.6923055555555|-159.569222222222
AIRPORT|2C7|AK|SHAKTOOLIK|SHAKTOOLIK|24.4|156|64.3710833333333|-161.223972222222
AIRPORT|SMU|AK|SHEEP MOUNTAIN|SHEEP MOUNTAIN|2750||61.8112805555555|-147.509051388889
AIRPORT|SXP|AK|NUNAM IQUA|NUNAM IQUA|18.2|120|62.5204166666667|-164.847638888889
AIRPORT|SYA|AK|SHEMYA|EARECKSON AS|97.7||52.7122583333333|174.113588888889
AIRPORT|1AK6|AK|SKWENTNA|TALACHULITNA RIVER|282|10|61.8527777777778|-151.408333333333
AIRPORT|SHH|AK|SHISHMAREF|SHISHMAREF|13.9||66.2495833333333|-166.089361111111
AIRPORT|SHG|AK|SHUNGNAK|SHUNGNAK|205||66.8880833333333|-157.162416666667
AIRPORT|SIT|AK|SITKA|SITKA ROCKY GUTIERREZ|26.5||57.0468343611111|-135.361068694444
SEAPLANE BASE|AA12|AK|SITKA|DOVE ISLAND LODGE|17||57.0408333333333|-135.295555555556
SEAPLANE BASE|A29|AK|SITKA|SITKA|0||57.0521377777778|-135.346208611111
AIRPORT|SGY|AK|SKAGWAY|SKAGWAY|44||59.4600619444444|-135.315663611111
AIRPORT|SKW|AK|SKWENTNA|SKWENTNA|148|130|61.9661125|-151.195390277778
AIRPORT|1AK8|AK|SKWENTNA|TALAHEIM|610||61.6746722222222|-151.384875
AIRPORT|3AK9|AK|SKWENTNA|RIVER JOHN|170||61.9351222222222|-150.989786111111
HELIPORT|22AK|AK|SKWENTNA|WHISKEY LAKE|160|1|61.9888138888889|-151.391161111111
AIRPORT|DDT|AK|SLANA|DUFFYS TAVERN|2420||62.7246119444444|-143.920514444444
AIRPORT|SLQ|AK|SLEETMUTE|SLEETMUTE|191.5|145|61.7005|-157.165861111111
AIRPORT|7AK2|AK|SNETTISHAM|SNETTISHAM|14||58.1343958333333|-133.729513055556
AIRPORT|1AK4|AK|SOLDOTNA|KENAI RIVER AIRPARK|200||60.5241544444444|-150.752209166667
AIRPORT|7AK3|AK|SOLDOTNA|GAEDE|115||60.4763719444444|-151.166113611111
AIRPORT|7AK5|AK|SOLDOTNA|DAHLER HOMESTEAD|300||60.5035966666667|-150.935550277778
AIRPORT|7AK6|AK|SOLDOTNA|DAN FRANCE|260||60.4777630555555|-150.928605555556
AIRPORT|04AA|AK|SOLDOTNA|PHILS|250|15|60.5358333333333|-150.811388888889
HELIPORT|SD1|AK|SOLDOTNA|SOLDOTNA HOSPITAL H|99||60.4926527777778|-151.078938888889
AIRPORT|SXQ|AK|SOLDOTNA|SOLDOTNA|113.4|426|60.4751388888889|-151.039638888889
SEAPLANE BASE|L85|AK|SOLDOTNA|MACKEYS LAKES|175||60.5336111111111|-150.995555555556
AIRPORT|AK55|AK|SOLDOTNA|MOOSE RUN AIRSTRIP|290||60.4891666666667|-150.801666666667
AIRPORT|70AK|AK|SOLDOTNA|BANGERTER FIELD|250||60.5177777777778|-150.959722222222
AIRPORT|AK26|AK|SOLOMON|SOLOMON STATE FIELD|25||64.5606413888889|-164.442327777778
AIRPORT|WSN|AK|SOUTH NAKNEK|SOUTH NAKNEK NR 2|162.3|214|58.7020833333333|-157.002583333333
AIRPORT|SVW|AK|SPARREVOHN|SPARREVOHN LRRS|1565||61.0971138888889|-155.574808333333
SEAPLANE BASE|36H|AK|SQUAW HARBOR|SQUAW HARBOR|0||55.2333391666667|-160.552026388889
SEAPLANE BASE|WSB|AK|STEAMBOAT BAY|STEAMBOAT BAY|0||55.5296386111111|-133.641697222222
AIRPORT|WBB|AK|STEBBINS|STEBBINS|19.4|110|63.5159722222222|-162.278
AIRPORT|88AK|AK|STERLING|DUTCH LANDING STRIP|300||60.5402777777778|-150.868055555556
AIRPORT|40AK|AK|STERLING|STERLING AIR PARK|275||60.5512111111111|-150.849027777778
AIRPORT|53AK|AK|STERLING|LAKEWOOD AIRSTRIP|110||60.5344972222222|-150.939286111111
AIRPORT|AK84|AK|STERLING|"SCOOTER'S LANDING STRIP"|259||60.5294444444444|-150.830833333333
AIRPORT|AK05|AK|STERLING|BREEDEN|365|80|60.54105|-150.599216666667
AIRPORT|AK01|AK|STERLING|ALASKA AIRPARK|336|78|60.5289833333333|-150.625133333333
AIRPORT|AK39|AK|STERLING|SOUTH GASLINE|381||60.6971975|-150.179949166667
AIRPORT|SVS|AK|STEVENS VILLAGE|STEVENS VILLAGE|328.3||66.0171666666667|-149.054361111111
AIRPORT|SRV|AK|STONY RIVER|STONY RIVER 2|230|8|61.78975|-156.588527777778
AIRPORT|UMM|AK|SUMMIT|SUMMIT|2409||63.3310401388889|-149.128836111111
AIRPORT|8AK6|AK|SUSITNA STATION|LITTLE SUSITNA|70||61.3719452777778|-150.262223611111
AIRPORT|28AK|AK|GLACIER VIEW|GATES RANCH|1875||61.8088766666667|-147.859346388889
AIRPORT|AK59|AK|SUTTON|KING RANCH|1350||61.7911111111111|-148.351666666667
AIRPORT|52AK|AK|SUTTON|CRAG MOUNTAIN|487||61.7040305555556|-148.908788888889
AIRPORT|TCT|AK|TAKOTNA|TAKOTNA|423.1|130|62.9929444444444|-156.029722222222
AIRPORT|TLJ|AK|TAKOTNA|TATALINA LRRS|933||62.8949152777778|-155.9780125
SEAPLANE BASE|A43|AK|TAKU HARBOR|TAKU HARBOR|0||58.0691138888889|-134.015356388889
SEAPLANE BASE|TKL|AK|TAKU LODGE|TAKU LODGE|0||58.4896830555556|-133.943421111111
AIRPORT|TKA|AK|TALKEETNA|TALKEETNA|364.5|624|62.3213611111111|-150.092722222222
AIRPORT|2AK7|AK|TALKEETNA|BALD MOUNTAIN|3600|10|62.3074333333333|-149.752083333333
AIRPORT|3AK3|AK|TALKEETNA|SONGLO VISTA|825|20|62.5637666666667|-150.2205
AIRPORT|AK61|AK|TALKEETNA|STEPHAN LAKE LODGE|1900||62.6996277777778|-148.907411111111
AIRPORT|AK19|AK|TALKEETNA|"CARL'S LANDING"|300||62.1739027777778|-150.064275
AIRPORT|21AK|AK|TALKEETNA|MONTANA CREEK|250||62.0826111111111|-150.066930555556
SEAPLANE BASE|AK8|AK|TALKEETNA|CHRISTIANSEN LAKE|400||62.3134138888889|-150.06935
AIRPORT|AA00|AK|TALKEETNA|SHUMP|1670||62.51015|-149.926716666667
AIRPORT|51AK|AK|TALKEETNA|BIRCH CREEK LANDING|400||62.2422888888889|-150.065813888889
AIRPORT|49AK|AK|TALKEETNA|SECLUDED LAKE|300||62.0244808333333|-149.9772425
HELIPORT|09AA|AK|TALKEETNA|SHELDON CHALET|5742|5|62.9698888888889|-150.75375
AIRPORT|93AK|AK|TYONE CREEK|TYONE CREEK 907AU CAMP|3720|10|62.1842694444444|-147.375219444444
AIRPORT|45AA|AK|TALKEETNA|DAVIDSON STRIP|383|8|62.1628972222222|-150.539608333333
AIRPORT|AK44|AK|TALKEETNA|TALKEETNA VILLAGE STRIP|346||62.3189366666667|-150.116147777778
AIRPORT|AA09|AK|TALKEETNA|BUSCH CREEK|3984||62.4775|-147.774722222222
AIRPORT|TSG|AK|TANACROSS|TANACROSS|1559||63.3740638055556|-143.32898975
AIRPORT|TAL|AK|TANANA|RALPH M CALHOUN MEMORIAL|242.3|1650|65.1743888888889|-152.108111111111
AIRPORT|7AK0|AK|TANANA|ART Z|193||64.6473916666667|-151.809872222222
AIRPORT|7KA|AK|TATITLEK|TATITLEK|61.9|160|60.8723888888889|-146.691166666667
AIRPORT|8KA|AK|TATITNA|TATITNA|1490||62.2932869444444|-153.361953055556
AIRPORT|AK49|AK|TAYLOR|TAYLOR|440||65.6792752777778|-164.798806944444
AIRPORT|AK64|AK|TAYLOR MOUNTAIN MINE|TAYLOR MOUNTAIN|1000||60.8677777777778|-157.391944444444
AIRPORT|Z14|AK|TAZLINA|TAZLINA|2450||62.0647886111111|-146.460521944444
SEAPLANE BASE|5AK|AK|TAZLINA|TAZLINA /SMOKEY LAKE/|2407||62.0634|-146.449411388889
AIRPORT|2K5|AK|TELIDA|TELIDA|650||63.3789847222222|-153.284215277778
AIRPORT|TER|AK|TELLER|TELLER|298.5||65.2403888888889|-166.339388888889
SEAPLANE BASE|TKE|AK|TENAKEE SPRINGS|TENAKEE|0||57.7796583333333|-135.218443888889
AIRPORT|3T4|AK|TETLIN|TETLIN|1670.9|365|63.1246944444444|-142.518555555556
AIRPORT|K55|AK|VALDEZ|THOMPSON PASS|2080||61.1772702777778|-145.688433888889
SEAPLANE BASE|KTB|AK|THORNE BAY|THORNE BAY|0||55.6879619444444|-132.536675833333
SEAPLANE BASE|AK56|AK|TIKCHIK|TIKCHIK LODGE|304||59.9631602777778|-158.477235
AIRPORT|TNC|AK|TIN CITY|TIN CITY LRRS|273||65.5640333333333|-167.922458333333
AIRPORT|TOG|AK|TOGIAK VILLAGE|TOGIAK|18||59.0535555555556|-160.396777777778
AIRPORT|8AK9|AK|TOK|TOK 2|1630||63.2999275|-143.023339722222
AIRPORT|9AK0|AK|TOK|SPORTSMENS PARADISE|3120||62.5121316666667|-143.235471388889
AIRPORT|6K8|AK|TOK|TOK JUNCTION|1642.8||63.3295143055556|-142.953684027778
SEAPLANE BASE|57A|AK|TOKEEN|TOKEEN|0||55.9371333333333|-133.326721388889
AIRPORT|OOK|AK|TOKSOOK BAY|TOKSOOK BAY|72.2|82|60.5413333333333|-165.087194444444
HELIPORT|AA14|AK|TOOLIK FIELD STATION|TOOLIK|2405||68.6281666666667|-149.589
SEAPLANE BASE|58A|AK|TOLSONA LAKE|TOLSONA LAKE|2000||62.1134113888889|-146.041066666667
AIRPORT|9AK|AK|TOTATLANIKA RIVER|TOTATLANIKA RIVER|2717||64.0256597222222|-148.5223375
AIRPORT|5AK0|AK|TRADING BAY|TRADING BAY PRODUCTION|200||60.8155491666667|-151.798917222222
AIRPORT|81AK|AK|TRAPPER CREEK|MC KINLEY COUNTRY|600||62.5676908333333|-150.236021388889
AIRPORT|0AA5|AK|TRAPPER CREEK|RANGEVIEW AIRSTRIP|470|3|62.3127777777778|-150.335833333333
AIRPORT|8AK5|AK|TRAPPER CREEK|FORT CROSBY AIRPORT|650|6|62.5138888888889|-150.265277777778
HELIPORT|61AK|AK|TRAPPER CREEK/TALKEETNA|ERA CHULITNA RIVER|960||62.5675527777778|-150.235883333333
AIRPORT|TLT|AK|TULUKSAK|TULUKSAK|35.8||61.0877277777778|-160.923352777778
SEAPLANE BASE|Z20|AK|TUNTUTULIAK|TUNTUTULIAK|15||60.3414566666667|-162.665620555556
AIRPORT|A61|AK|TUNTUTULIAK|TUNTUTULIAK|16||60.3511083333333|-162.654611111111
AIRPORT|4KA|AK|TUNUNAK|TUNUNAK|62.3||60.5695277777778|-165.246277777778
SEAPLANE BASE|AK62|AK|TUXEKAN ISLAND|NAUKATI BAY|0||55.8496427777778|-133.2278275
AIRPORT|A63|AK|TWIN HILLS|TWIN HILLS|82||59.074525|-160.275041666667
AIRPORT|TYE|AK|TYONEK|TYONEK|110||61.0766625|-151.138070277778
AIRPORT|9AK3|AK|TYONEK|NIKOLAI CREEK|30|10|61.0138844444444|-151.448910277778
HELIPORT|5AK1|AK|TYONEK|BELUGA|75||61.1807694444444|-151.041147222222
AIRPORT|9A8|AK|UGASHIK|UGASHIK|43.8|60|57.523425|-157.395994444444
AIRPORT|AK96|AK|UGASHIK|RANDY BRIGGS MEM FLD|25||57.5164097222222|-157.385951388889
AIRPORT|UMT|AK|UMIAT|UMIAT|267.6|290|69.3711126666667|-152.134982666667
AIRPORT|UNK|AK|UNALAKLEET|UNALAKLEET|27.3|715|63.8885|-160.799111111111
AIRPORT|DUT|AK|UNALASKA|UNALASKA|23.3||53.8989444444444|-166.545027777778
AIRPORT|UTO|AK|UTOPIA CREEK|INDIAN MOUNTAIN LRRS|1261||65.9927722222222|-153.703488888889
AIRPORT|VDZ|AK|VALDEZ|VALDEZ PIONEER FIELD|121|836|61.1342152777778|-146.244761944444
HELIPORT|1AK7|AK|VALDEZ|VALDEZ HOSPITAL|96||61.1366111111111|-146.345388888889
SEAPLANE BASE|L93|AK|VALDEZ|ROBE LAKE|39||61.0871222222222|-146.144008333333
HELIPORT|3AA3|AK|VALDEZ|CVTC FIELD|50|2|61.13|-146.370555555556
AIRPORT|VEE|AK|VENETIE|VENETIE|574.1||67.008675|-146.366358333333
AIRPORT|0AK6|AK|VICTORY BIBLE CAMP|VICTORY|1800||61.8033744444444|-147.944153333333
AIRPORT|AK03|AK|WAINWRIGHT|WAINWRIGHT AS|35||70.6133777777778|-159.86035
AIRPORT|AWI|AK|WAINWRIGHT|WAINWRIGHT|45.1||70.638|-159.99475
AIRPORT|IWK|AK|WALES|WALES|25.8||65.6225555555556|-168.094972222222
AIRPORT|AK99|AK|WASILLA|GRAND HOME|85|10|61.4466666666667|-149.761111111111
AIRPORT|AK45|AK|WASILLA|GREBE LAKE|250||61.559375|-149.624288888889
AIRPORT|AK83|AK|WASILLA|"GANNON'S LANDING"|380|26|61.62725|-149.609330555556
AIRPORT|7AK8|AK|WASILLA|HESS|355||61.62125|-149.614919444444
AIRPORT|AK25|AK|WASILLA|PIPER LANDING|350|8|61.6175|-149.614738888889
AIRPORT|41AK|AK|WASILLA|SETTLERS BAY AIRSTRIP|75||61.5009|-149.6397
AIRPORT|5AK8|AK|WASILLA|MEMORY LAKE|420||61.63135|-149.432419444444
AIRPORT|7AK4|AK|WASILLA|JACK FISH LANDING|150|5|61.5414805555556|-149.460680555556
SEAPLANE BASE|T66|AK|WASILLA|VISNAW LAKE|300||61.6190111111111|-149.678561111111
AIRPORT|44AK|AK|WASILLA|WEST PAPOOSE LAKE AIRPARK|230||61.5334444444444|-150.102444444444
SEAPLANE BASE|5L6|AK|WASILLA|WASILLA LAKE|330||61.5864061111111|-149.407499166667
AIRPORT|3AK8|AK|WASILLA|"BOISSELLE'S STRIP"|400||61.6625388888889|-149.3919
AIRPORT|43AK|AK|WASILLA|KALMBACH|445||61.6007611111111|-149.579169444444
AIRPORT|0AK1|AK|WASILLA|ANDERSON LAKE|463|5087|61.6168805555556|-149.321538888889
AIRPORT|71AK|AK|WASILLA|BLUFF PARK FARM|110|9|61.5276388888889|-149.496311111111
AIRPORT|16AK|AK|WASILLA|GATTIS STRIP|320|15|61.5991666666667|-149.346944444444
AIRPORT|89AK|AK|WASILLA|LINCOLN VILLAGE AIRPARK|250||61.5593888888889|-149.705469444444
AIRPORT|AK65|AK|WASILLA|"GREEN'S STRIP"|300||61.59795|-149.350511111111
AIRPORT|10AK|AK|WASILLA|HUNT STRIP|200||61.5918805555556|-149.677911111111
AIRPORT|IYS|AK|WASILLA|WASILLA|353.7||61.5719861388889|-149.539556694444
AIRPORT|87AK|AK|WASILLA|SOLOY STRIP|545||61.6515305555556|-149.288480555556
AIRPORT|4AK2|AK|WASILLA|ST JOHN HOMESTEAD|250||61.5579888888889|-149.424077777778
AIRPORT|5AK5|AK|WASILLA|TODDS STRIP|492||61.6570888888889|-149.461711111111
SEAPLANE BASE|3H3|AK|WASILLA|COTTONWOOD LAKE|300||61.5976111111111|-149.316361111111
AIRPORT|6AK8|AK|WASILLA|TULAKES|350||61.61815|-149.669188888889
AIRPORT|6AK7|AK|WASILLA|RAINBOW HEIGHTS ESTATES AIRSTRIP|270|7|61.5747222222222|-149.635
AIRPORT|9AK6|AK|WASILLA|LEISUREWOOD AIRSTRIP|366|11|61.6240611111111|-149.6483
AIRPORT|8AK8|AK|WASILLA|NORTH CUBS STRIP|350|50|61.63|-149.682580555556
AIRPORT|6AK9|AK|WASILLA|CIZEK NORTH|300|50|61.6334611111111|-149.682380555556
AIRPORT|9AK8|AK|WASILLA|WOLF TRACK|90||61.6247422222222|-149.68223
AIRPORT|58AK|AK|WASILLA|FAIRVIEW EAST|100||61.5525888888889|-149.339661111111
SEAPLANE BASE|57AK|AK|WASILLA|LOST LAKE SPB|120|150|61.3350305555556|-149.99725
SEAPLANE BASE|62AK|AK|WASILLA|WALLIS LAKE SPB|320|100|61.5728611111111|-149.5747
AIRPORT|23AK|AK|WASILLA|YUKNIS|340|5|61.5940805555556|-149.310730555556
SEAPLANE BASE|3A3|AK|WASILLA|SEYMOUR LAKE SPB|320||61.6134611111111|-149.665569444444
AIRPORT|59AK|AK|WASILLA|PENDEROSA|520|27|61.6317805555556|-149.340611111111
AIRPORT|55AK|AK|WASILLA|LAWRENCE AIRSTRIP|200||61.4957805555556|-149.699319444444
SEAPLANE BASE|54AK|AK|WASILLA|KALMBACH LAKE|400||61.6070611111111|-149.57385
AIRPORT|38AK|AK|WASILLA|MELS|340|100|61.56245|-149.667838888889
AIRPORT|36AK|AK|WASILLA|FLYWAY FARM AIRSTRIP|150||61.3433388888889|-150.066630555556
AIRPORT|65AK|AK|WASILLA|MCDONALD RIDGE|285|75|61.5605452777778|-149.368608055556
AIRPORT|AK27|AK|WASILLA|VALLEY FLYING CROWN|400|30|61.6425805555556|-149.62445
SEAPLANE BASE|AK43|AK|WASILLA|JACOBSEN LAKE|350|100|61.5790805555556|-149.53885
AIRPORT|AK47|AK|WASILLA|SHAWN FIELD|300|45|61.5856888888889|-149.56335
AIRPORT|AK54|AK|WASILLA|"STRO'S"|340|7|61.5933305555556|-149.326230555556
SEAPLANE BASE|4A3|AK|WASILLA|LAKE LUCILLE|300||61.5750277777778|-149.475611111111
AIRPORT|AK58|AK|WASILLA|FAIRVIEW WEST|73|85|61.5400138888889|-149.548761111111
SEAPLANE BASE|D75|AK|WASILLA|BLODGETT LAKE|242||61.5760805555556|-149.675569444444
SEAPLANE BASE|3K9|AK|WASILLA|UPPER WASILLA LAKE|330||61.58875|-149.385061111111
AIRPORT|67AK|AK|WASILLA|SOUTH HOLLYWOOD|375||61.5346388888889|-149.6701
SEAPLANE BASE|4AK0|AK|WASILLA|NIKLASON LAKE|380||61.6292|-149.271080555556
AIRPORT|77AK|AK|WASILLA|TIDEWATER|80||61.5026694444444|-149.595655555556
SEAPLANE BASE|29A|AK|WASILLA|ISLAND LAKE|370||61.6289027777778|-149.617840277778
AIRPORT|AK79|AK|WASILLA|JOLLY FIELD|100||61.59355|-149.5665
AIRPORT|AK16|AK|WASILLA|SUNSET STRIP|303||61.5234194444444|-149.714861111111
AIRPORT|79AK|AK|WASILLA|HUTTUNEN STRIP|254||61.4818388888889|-149.744019444444
SEAPLANE BASE|66AK|AK|WASILLA|JUNE LAKE|406||61.63|-149.569166666667
AIRPORT|06AK|AK|WASILLA|JUNE LAKE AIRPARK|425||61.6276194444444|-149.575330555556
AIRPORT|AK85|AK|WASILLA|BIRCHWATER|110||61.4823333333333|-149.763986111111
HELIPORT|60AK|AK|WASILLA|"CAROL'S"|328||61.6074111111111|-149.2795
SEAPLANE BASE|69AK|AK|WASILLA|MEMORY LAKE|463||61.6288888888889|-149.423611111111
SEAPLANE BASE|AA11|AK|WASILLA|MISTY LAKE|350||61.5507388888889|-149.676130555556
HELIPORT|84AK|AK|WASILLA|T-TIME|375||61.5872472222222|-149.334530555556
SEAPLANE BASE|KWF|AK|WATERFALL|WATERFALL|0||55.2963227777778|-133.243335833333
SEAPLANE BASE|96Z|AK|WHALE PASS|WHALE PASS SEAPLANE FLOAT HARBOR FACILITY|0||56.1163105555556|-133.121715277778
SEAPLANE BASE|KWP|AK|WEST POINT|WEST POINT VILLAGE|0||57.7701094444444|-153.548948055556
AIRPORT|WMO|AK|WHITE MOUNTAIN|WHITE MOUNTAIN|267.4|82|64.6891944444444|-163.41275
AIRPORT|IEM|AK|WHITTIER|WHITTIER|39||60.7771694444444|-148.719652777778
AIRPORT|AK08|AK|WILLOW|THOMAS STRIP|190||61.7899194444444|-150.106038888889
SEAPLANE BASE|2X2|AK|WILLOW|WILLOW SPB|200||61.7434444444444|-150.059694444444
AIRPORT|78AK|AK|WILLOW|C T S|160|6|61.7349444444444|-150.537513888889
AIRPORT|AK90|AK|WILLOW|SHIRLEY LAKE|185||61.7447194444444|-150.115461111111
AIRPORT|AK72|AK|WILLOW|JEWELL|113|5|61.7051916666667|-150.599341666667
AIRPORT|3AK7|AK|WILLOW|LAUB|100|8|61.7655766666667|-150.338905555556
SEAPLANE BASE|AK34|AK|WILLOW|KASHWITNA LAKE|186||61.8353030555555|-150.079738333333
AIRPORT|02AK|AK|WILLOW|RUSTIC WILDERNESS|190||61.8769111111111|-150.097638888889
AIRPORT|35AK|AK|WILLOW|POKER BLUFF|109||61.6406555555556|-150.516147222222
AIRPORT|07AA|AK|WILLOW|PAN LAKE STRIP|357|9|61.6959638888889|-149.954902777778
AIRPORT|25AK|AK|WILLOW|HONEYBEE LAKE AERO PARK|200|136|61.7122388888889|-150.063330555556
AIRPORT|AK68|AK|WILLOW|MINUTEMAN STRIP|290|40|61.7202777777778|-150.054444444444
SEAPLANE BASE|AK57|AK|WILLOW|LONG LAKE|180||61.72565|-150.091211111111
AIRPORT|AK69|AK|WILLOW|LONG LAKE|200||61.7293194444444|-150.097669444444
AIRPORT|AK67|AK|WILLOW|SKID MARKS|64||61.7386111111111|-150.072777777778
SEAPLANE BASE|MFN|AK|WILLOW|MINUTEMAN LAKE|295||61.7213111111111|-150.046869444444
AIRPORT|AK10|AK|WILLOW|AK-10 AIRSTRIP|210|23|61.7172222222222|-150.109444444444
AIRPORT|0AK2|AK|WILLOW|YENTNA BEND STRIP|81||61.7247333333333|-150.683427777778
AIRPORT|UUO|AK|WILLOW|WILLOW|215.3|610|61.7541888888889|-150.051738888889
AIRPORT|WSM|AK|WISEMAN|WISEMAN|1195||67.4051069444444|-150.120877777778
SEAPLANE BASE|68A|AK|WRANGELL|WRANGELL|0||56.466325|-132.380018055556
AIRPORT|WRG|AK|WRANGELL|WRANGELL|44||56.4843333333333|-132.369833333333
AIRPORT|0AA1|AK|YAKATAGA|YAKATAGA|16|1115|60.0808486111111|-142.495494444444
AIRPORT|3AK|AK|YAKUTAT|DRY BAY|33||59.1643333333333|-138.488805555556
AIRPORT|YAK|AK|YAKUTAT|YAKUTAT|39.7||59.5033233333333|-139.660268055556
AIRPORT|A67|AK|YAKUTAT|HARLEQUIN LAKE|113||59.4143958333333|-139.033720833333
AIRPORT|A68|AK|YAKUTAT|SITUK|60||59.5528708333333|-139.510222222222
AIRPORT|A69|AK|YAKUTAT|TANIS MESA|183||59.2495972222222|-138.504165277778
SEAPLANE BASE|2Y3|AK|YAKUTAT|YAKUTAT|0||59.5776944444444|-139.749944444444
AIRPORT|A57|AK|YAKUTAT|ALSEK RIVER|53||59.1991333333333|-138.445877777778
AIRPORT|AK76|AK|YAKUTAT|EAST ALSEK RIVER|39||59.1262847222222|-138.408831944444
AIRPORT|A77|AK|YANKEE CREEK|YANKEE CREEK 2|1120||63.0018680555556|-156.367360277778
SEAPLANE BASE|78K|AK|YES BAY|YES BAY LODGE|0||55.9163013888889|-131.801133611111
AIRPORT|L20|AK|YUKON CHARLEY RIVERS|COAL CREEK|867||65.3115208333333|-143.134119444444
AIRPORT|0J0|AL|ABBEVILLE|ABBEVILLE MUNI|463.1|36|31.6002222222222|-85.2383083333333
AIRPORT|2A8|AL|ADDISON|ADDISON MUNI|786|37|34.2171416666667|-87.1581583333333
AIRPORT|AL03|AL|AKRON|STRICKLAND/SMALLEY FIELD|369||32.8475|-87.7138888888889
AIRPORT|EET|AL|ALABASTER|SHELBY COUNTY|585.6|125|33.1777777777778|-86.7832222222222
HELIPORT|AL39|AL|ALABASTER|SHELBY MEDICAL CENTER|510||33.2522222222222|-86.8122222222222
AIRPORT|8A0|AL|ALBERTVILLE|ALBERTVILLE RGNL-THOMAS J BRUMLIK FLD|1032.3|77|34.2291111111111|-86.25575
AIRPORT|ALX|AL|ALEXANDER CITY|THOMAS C RUSSELL FLD|685.8|293|32.91475|-85.9629444444444
AIRPORT|AIV|AL|ALICEVILLE|GEORGE DOWNER|150|41|33.1067444444444|-88.197175
AIRPORT|79J|AL|ANDALUSIA|SOUTH ALABAMA RGNL AT BILL BENTON FIELD|310.2|615|31.3083611111111|-86.3922222222222
AIRPORT|ANB|AL|ANNISTON|ANNISTON RGNL|612|596|33.5881666666667|-85.8581111111111
HELIPORT|AL42|AL|ANNISTON|THE HEALTH CARE AUTHORITY OF THE CITY OF ANNISTON|844||33.6560055555556|-85.8244444444444
HELIPORT|04AL|AL|ANNISTON|ANNISTON AHP (ANNISTON ARMY DEPOT)|686||33.6263888888889|-85.9672222222222
AIRPORT|1M3|AL|ARDMORE|ARDMORE|922|46|34.9790833333333|-86.8832777777778
AIRPORT|26A|AL|ASHLAND/LINEVILLE|ASHLAND/LINEVILLE|1065|85|33.2841972222222|-85.8089652777778
HELIPORT|0AL2|AL|ASHLAND|CLAY COUNTY HOSPITAL|1040||33.2772166666667|-85.8248194444444
AIRPORT|AL60|AL|ASHVILLE|"DUGGER'S FIELD"|560|48|33.8387097222222|-86.2113652777778
HELIPORT|5AL9|AL|ATHENS|ATHENS-LIMESTONE HOSPITAL HELIPAD|693||34.8028166666667|-86.9806055555556
AIRPORT|0R1|AL|ATMORE|ATMORE MUNI|286|43|31.0161388888889|-87.44675
AIRPORT|AUO|AL|AUBURN|AUBURN UNIVERSITY RGNL|776.8|423|32.6151111111111|-85.434
AIRPORT|1R8|AL|BAY MINETTE|BAY MINETTE MUNI|248.1|184|30.8703333333333|-87.8193333333333
HELIPORT|6AL9|AL|BAY MINETTE|MEGA SITE HELIPAD|284||30.9486111111111|-87.7455555555556
AIRPORT|5R7|AL|BAYOU LA BATRE|ROY E RAY|87|41|30.45525|-88.2111944444444
HELIPORT|AL67|AL|THEODORE|PETROLEUM HELICOPTERS INC|32.9||30.4311111111111|-88.1791666666667
AIRPORT|EKY|AL|BESSEMER|BESSEMER|699.6|380|33.3126111111111|-86.9263055555556
HELIPORT|AL19|AL|BESSEMER|MEDICAL WEST|670||33.3715583333333|-86.9910055555556
AIRPORT|BHM|AL|BIRMINGHAM|BIRMINGHAM-SHUTTLESWORTH INTL|650|2000|33.5638888888889|-86.7523055555556
HELIPORT|AL50|AL|BIRMINGHAM|BAPTIST MEDICAL CENTER-PRINCETON|557||33.4976058333333|-86.8463794444445
HELIPORT|AL49|AL|BIRMINGHAM|CARRAWAY MEDICAL CENTER|672||33.5357833333333|-86.8114055555556
HELIPORT|AL91|AL|BIRMINGHAM|"THE CHILDREN'S HOSPITAL"|698||33.5042719444444|-86.8052675
HELIPORT|AL21|AL|BIRMINGHAM|LAKESIDE|645||33.5120491666667|-86.6774869444444
HELIPORT|AL38|AL|BIRMINGHAM|UNIVERSITY OF ALABAMA HOSPITAL|787||33.5058611111111|-86.8027777777778
HELIPORT|0AL8|AL|BIRMINGHAM|BROOKWOOD MEDICAL CENTER|763||33.4640722222222|-86.7728694444445
HELIPORT|AL45|AL|BIRMINGHAM|GRANDVILLE MEDICAL CENTER|540||33.432875|-86.7160944444445
HELIPORT|AL66|AL|BIRMINGHAM|ALABAMA POWER HEADQUARTERS|676||33.5195497222222|-86.8136011111111
HELIPORT|AL65|AL|BIRMINGHAM|ST VINCENTS EAST|1070||33.5969722222222|-86.6678083333333
HELIPORT|9AL9|AL|BIRMINGHAM|LIBERTY PARK|620||33.4786666666667|-86.702
AIRPORT|AL40|AL|BIRMINGHAM|BONHAM|600||33.5431619444444|-86.9858277777778
AIRPORT|AL29|AL|BLOUNTSVILLE|NEW HORIZON|750||34.1292638888889|-86.6333266666667
HELIPORT|1AL0|AL|BOAZ|MARSHALL MEDICAL CENTER SOUTH|1035||34.2204055555556|-86.15765
AIRPORT|8AL3|AL|BOAZ|FRICKS FIELD|1000|3|34.1417666666667|-86.0885666666667
AIRPORT|3AL6|AL|ODENVILLE|TOWN & COUNTRY AIRPARK|730||33.6567777777778|-86.4124722222222
AIRPORT|AL30|AL|BREMEN|ROCKY SPRINGS AIRPARK|649|382|33.9908333333333|-87.0777777777778
AIRPORT|12J|AL|BREWTON|BREWTON MUNI|98.7|880|31.0508333333333|-87.0659722222222
HELIPORT|0AL6|AL|BREWTON|D W MCMILLIAN MEMORIAL HOSPITAL|155||31.1256694444444|-87.0734694444444
HELIPORT|10AL|AL|BRIDGEPORT|NORTH JACKSON NURSING HOME|650||34.9138416666667|-85.7708611111111
HELIPORT|42AL|AL|BUTLER|CHOCTAW GENERAL HOSPITAL|133||32.0934833333333|-88.2101916666667
AIRPORT|09A|AL|BUTLER|BUTLER-CHOCTAW COUNTY|133.7|80|32.1193055555556|-88.1274722222222
AIRPORT|61A|AL|CAMDEN|CAMDEN MUNI|142.9|77|31.97975|-87.3391111111111
HELIPORT|AL01|AL|CARROLLTON|PICKENS COUNTY MEDICAL CENTER|239||33.2742083333333|-88.0893333333333
AIRPORT|AL32|AL|CEDAR BLUFF|FLYING M RANCH|670|15|34.3225888888889|-85.6437138888889
AIRPORT|AL27|AL|CENTRE|HEADQUARTERS|610||34.1056527777778|-85.5657938888889
AIRPORT|PYP|AL|CENTRE|CENTRE-PIEDMONT-CHEROKEE COUNTY RGNL|594.6|308|34.0899166666667|-85.6100833333333
AIRPORT|0A8|AL|CENTREVILLE|BIBB COUNTY|250.9|56|32.9369388888889|-87.0905472222222
AIRPORT|5AL1|AL|CHAPMAN|MC GOWIN FIELD|400|33|31.6807127777778|-86.6819169444445
AIRPORT|5R1|AL|CHATOM|ROY WILCOX|166|40|31.4516668888889|-88.1944266388889
AIRPORT|6AL6|AL|CHATOM|HAWTHORN PINES|150||31.3885833333333|-88.0925833333333
HELIPORT|7AL6|AL|CHILDERSBURG|RESOLUTE FOREST PRODUCTS|417|0|33.3224333333333|-86.3578805555556
HELIPORT|35AL|AL|CITRONELLE|SILCOX MEMORIAL|339||31.0895972222222|-88.2450722222222
AIRPORT|02A|AL|CLANTON|CHILTON COUNTY|584.7|101|32.8504844722222|-86.6114324722222
AIRPORT|01AL|AL|CLANTON|WARE ISLAND|344|11|32.9459561111111|-86.5138683333333
HELIPORT|8AL0|AL|CLANTON|MITCHELL DAM|442||32.8005|-86.4465
HELIPORT|5AL4|AL|CLANTON|CHILTON CO HEALTH CARE AUTHORITY|683||32.8808333333333|-86.6219444444444
AIRPORT|11A|AL|CLAYTON|CLAYTON MUNI|434.9|56|31.8833333333333|-85.4852222222222
AIRPORT|1AL2|AL|COLUMBIANA|TRI-L ACRES AIRPARK|580||33.2471527777778|-86.5979166666667
HELIPORT|91AL|AL|COLUMBIANA|"SHELBY COUNTY SHERIFF'S OFFICE"|593||33.1866194444444|-86.6268
HELIPORT|AL13|AL|COTTONTON|WESTROCK - MHRT MILL|95||32.1723744444444|-85.0288191666667
AIRPORT|9A4|AL|COURTLAND|COURTLAND|587.8|350|34.6594166666667|-87.3489166666667
AIRPORT|AL51|AL|CRAWFORD|"FLYING C'S PLANTATION"|395|60|32.4161111111111|-85.2991666666667
AIRPORT|15A|AL|CREOLA|MARK REYNOLDS/NORTH MOBILE COUNTY|60|40|30.9091388888889|-87.9963333333333
AIRPORT|CMD|AL|CULLMAN|CULLMAN RGNL-FOLSOM FIELD|969.2|90|34.2686944444444|-86.8580277777778
HELIPORT|3AL9|AL|CULLMAN|CULLMAN RGNL MEDICAL CENTER|826||34.2019833333333|-86.8065
HELIPORT|5AL6|AL|DADEVILLE|LAKE MARTIN COMMUNITY HOSPITAL|668||32.8184916666667|-85.7415111111111
HELIPORT|30AL|AL|DANVILLE|MED FLIGHT 2|650|5|34.373|-87.0805
AIRPORT|4R9|AL|DAUPHIN ISLAND|JEREMIAH DENTON|5.3|22|30.2604916666667|-88.1274722222222
HELIPORT|6AL8|AL|DAPHNE|MALBIS MED PARK-INFIRMARY HEALTH|195||30.6546361111111|-87.8542527777778
AIRPORT|4AL3|AL|DAPHNE|TREEO|130|20|30.5918055555556|-87.8225833333333
AIRPORT|DCU|AL|DECATUR|PRYOR FIELD RGNL|592|200|34.6540555555556|-86.9453611111111
HELIPORT|1AL1|AL|DECATUR|DECATUR GENERAL HOSPITAL|588||34.5920972222222|-86.972125
AIRPORT|DYA|AL|DEMOPOLIS|DEMOPOLIS RGNL|111.7|438|32.4638333333333|-87.9540555555556
HELIPORT|AL14|AL|DEMOPOLIS|BRYAN W  WHITFIELD MEMORIAL HOSPITAL|154|3|32.5055555555556|-87.8363888888889
HELIPORT|AL20|AL|DOTHAN|SOUTHEAST ALABAMA MEDICAL CENTER|314||31.2181027777778|-85.3674555555556
HELIPORT|AL59|AL|DOTHAN|FLOWERS HOSPITAL|305||31.2373666666667|-85.4547833333333
AIRPORT|DHN|AL|DOTHAN|DOTHAN RGNL|400.8|1150|31.3210277777778|-85.4494722222222
HELIPORT|1AL9|AL|ELBERTA|BARBER MARINA HELIPORT|14|6|30.31545|-87.5723777777778
AIRPORT|3M2|AL|DOUBLE SPRINGS|DOUBLE SPRINGS-WINSTON COUNTY|753.5|65|34.1442209722222|-87.3278140277778
AIRPORT|14J|AL|ELBA|CARL FOLSOM|258|171|31.4100416666667|-86.0903361111111
AIRPORT|7AL9|AL|ELBERTA|HORAK|110||30.4692277777778|-87.5439111111111
AIRPORT|AL08|AL|ELBERTA|PERDIDO WINDS AIRPARK|75|204|30.4250083333333|-87.5367055555556
AIRPORT|AL55|AL|ELBERTA|SHIELDS|95|78|30.4418638888889|-87.4638683333333
AIRPORT|EDN|AL|ENTERPRISE|ENTERPRISE MUNI|360.9|90|31.2997222222222|-85.8998333333333
AIRPORT|EUF|AL|EUFAULA|WEEDON FIELD|285.2|208|31.9513055555556|-85.1289166666667
AIRPORT|3A7|AL|EUTAW|EUTAW MUNI|170|48|32.8204166666667|-87.8650833333333
AIRPORT|GZH|AL|EVERGREEN|EVERGREEN RGNL/MIDDLETON FIELD|259|200|31.415|-87.0433611111111
HELIPORT|0AL3|AL|EVERGREEN|HOSPITAL PAD|295||31.4301|-86.9402166666667
AIRPORT|CQF|AL|FAIRHOPE|H L SONNY CALLAHAN|91.1|144|30.4605|-87.8770277777778
AIRPORT|M95|AL|FAYETTE|RICHARD ARTHUR FIELD|357.4|150|33.7091058333333|-87.8152086111111
HELIPORT|3AL0|AL|FAYETTE|FAYETTE MEDICAL CENTER|370|1|33.7091666666667|-87.8236111111111
AIRPORT|4AL7|AL|FLAT ROCK|"LEON'S LANDING"|1430||34.7447222222222|-85.6898333333333
HELIPORT|43AL|AL|FLAT ROCK|FLAT ROCK COMMUNITY CLUB|1289||34.7689194444444|-85.6962055555556
AIRPORT|0AL5|AL|FLOMATON|FLOMATON|247||31.0322222222222|-87.2527777777778
HELIPORT|7AL8|AL|FLORALA|FORLALA HOSPITAL HELIPAD|324||31.0009111111111|-86.3136555555555
AIRPORT|0J4|AL|FLORALA|FLORALA MUNI|314.3|88|31.0424736111111|-86.3115611111111
SEAPLANE BASE|AL46|AL|FLORENCE|SHOALS CREEK|510||34.902585|-87.5872477777778
HELIPORT|AL22|AL|FLORENCE|ELIZA COFFEE MEMORIAL HOSPITAL|581||34.7938027777778|-87.6832805555556
AIRPORT|0AL9|AL|FLORENCE|WILSON CREEK|590||34.85|-87.6325
HELIPORT|40AL|AL|FLORENCE|NORTH ALABAMA MEDICAL CENTER|526|25|34.805125|-87.6528194444444
AIRPORT|0AL1|AL|FOLEY|RESORT|97||30.4438888888889|-87.6569444444444
AIRPORT|02AL|AL|FOLEY|BASS FIELD|61|10|30.3714638888889|-87.7644444444445
HELIPORT|3AL4|AL|FOLEY|FOLEY HOSPITAL|85||30.4266694444444|-87.6851138888889
AIRPORT|5R4|AL|FOLEY|FOLEY MUNI|74.3|104|30.4276666666667|-87.7009722222222
AIRPORT|NBJ|AL|FOLEY|BARIN NOLF|54||30.3890872222222|-87.6352625
HELIPORT|9AL5|AL|FORKLAND|GREENE CO STEAM PLANT|107||32.6013138888889|-87.7835055555555
AIRPORT|67A|AL|FORT DEPOSIT|FORT DEPOSIT-LOWNDES COUNTY|490|55|31.9723708333333|-86.5916413888889
AIRPORT|2AL5|AL|FORT PAYNE|FLYING J RANCH|1430|38|34.3927777777778|-85.665
AIRPORT|4A9|AL|FORT PAYNE|ISBELL FIELD|876.7|126|34.4736944444444|-85.7213888888889
HELIPORT|0AL4|AL|FORT PAYNE|DEKALB RGNL MEDICAL CENTER|810||34.4422027777778|-85.7558194444444
AIRPORT|OZR|AL|FORT RUCKER/OZARK|CAIRNS AAF (FORT RUCKER)|301||31.275775|-85.71335
HELIPORT|HEY|AL|FORT RUCKER OZARK|HANCHEY AHP (FORT RUCKER)|317.9||31.3557341666667|-85.6518630555556
HELIPORT|LOR|AL|FORT RUCKER OZARK|LOWE AHP (FORT RUCKER)|294.3||31.3558333333333|-85.7511666666667
HELIPORT|FHK|AL|FORT RUCKER/OZARK|KNOX AHP|225||31.3168383333333|-85.6666019444444
HELIPORT|SXS|AL|FORT RUCKER|SHELL AHP|400||31.3626694444444|-85.8493833333333
HELIPORT|24AL|AL|FORT RUCKER/DOTHAN|TOTH STAGEFIELD AHP|318||31.2257083333333|-85.5615944444444
HELIPORT|25AL|AL|FORT RUCKER/GOODMAN|LUCAS AHP|336||31.269875|-86.0409388888889
HELIPORT|05AL|AL|FORT RUCKER/WICKSBURG|ALLEN STAGEFIELD AHP|365||31.231175|-85.6497027777778
HELIPORT|06AL|AL|FORT RUCKER/NEW BROCKTON|BROWN STAGEFIELD AHP|415||31.3884388888889|-85.972425
HELIPORT|11AL|AL|FORT RUCKER/OZARK|ECH STAGEFIELD AHP|268||31.3936944444444|-85.7515
HELIPORT|12AL|AL|FORT RUCKER/KIRKLANDS CROSSROADS|GOLDBERG STAGEFIELD AHP|362||31.4139777777778|-85.45985
HELIPORT|13AL|AL|FORT RUCKER/OZARK|HATCH AHP|225||31.3589722222222|-85.6205444444444
HELIPORT|14AL|AL|FORT RUCKER/HARTFORD|HIGHBLUFF AHP|270||31.1535388888889|-85.7336805555556
HELIPORT|15AL|AL|FORT RUCKER/HARTFORD|HIGHFALLS STAGEFIELD AHP|220||31.0936111111111|-85.7879444444444
HELIPORT|16AL|AL|FORT RUCKER/OZARK|HOOPER STAGEFIELD AHP|365||31.4084111111111|-85.6892444444445
HELIPORT|17AL|AL|FORT RUCKER/NEWTON|HUNT AHP|263||31.3801861111111|-85.580275
HELIPORT|19AL|AL|FORT RUCKER/OZARK|MOLINELLI STAGEFIELD AHP|490||31.4824305555556|-85.7850638888889
HELIPORT|20AL|AL|FORT RUCKER/ELBA|RUNKLE STAGEFIELD AHP|180||31.3388138888889|-86.0917472222222
HELIPORT|21AL|AL|FORT RUCKER/OPP|SKELLY STAGEFIELD AHP|220||31.2876527777778|-86.1300611111111
HELIPORT|22AL|AL|FORT RUCKER/NEW BROCKTON|STINSON STAGEFIELD AHP|379||31.3607944444444|-86.0137305555556
HELIPORT|23AL|AL|FORT RUCKER/OZARK|TABERNACLE STAGEFIELD AHP|470||31.4649527777778|-85.8463361111111
HELIPORT|07AL|AL|FORT RUCKER/SAMSON|TAC X STAGEFIELD AHP|132|169|31.125175|-85.9791055555556
AIRPORT|GAD|AL|GADSDEN|NORTHEAST ALABAMA RGNL|569.2|1480|33.9726488611111|-86.0890834444444
HELIPORT|0AL7|AL|GADSDEN|GADSDEN REGL MEDICAL CENTER|621||34.0083333333333|-85.9652777777778
HELIPORT|41AL|AL|GARDENDALE|UAB HOSPITAL/GARDENDALE FED|630||33.6484|-86.8189
AIRPORT|AL18|AL|GARDENDALE|PARKER FIELD|590||33.6762147222222|-86.8674938888889
AIRPORT|AL43|AL|GEIGER|HENLEY RANCH|200|60|32.9084625|-88.3333666666667
AIRPORT|33J|AL|GENEVA|GENEVA MUNI|100.3|105|31.052625|-85.8689444444445
HELIPORT|8AL9|AL|GENEVA|WIREGRASS HOSPITAL|160||31.0496230555556|-85.8916027777778
AIRPORT|7A0|AL|GREENSBORO|GREENSBORO MUNI|174.9|23|32.6815333333333|-87.6620805555555
AIRPORT|PRN|AL|GREENVILLE|MAC CRENSHAW MEMORIAL|451.4|89|31.8456944444444|-86.61075
AIRPORT|71AL|AL|GREENVILLE|SELLS|380|25|31.8087861111111|-86.523525
AIRPORT|68AL|AL|GREENVILLE|HEART OF DIXIE AERO ESTATES|382|177|31.8084|-86.525
AIRPORT|3A0|AL|GROVE HILL|GROVE HILL MUNI|478|130|31.6893238888889|-87.7613875
SEAPLANE BASE|AL75|AL|GULF SHORES|GULF STATE PARK|0||30.2632777777778|-87.6368888888889
SEAPLANE BASE|AL96|AL|GULF SHORES|BON SECOUR|0||30.2983333333333|-87.7408333333333
AIRPORT|JKA|AL|GULF SHORES|JACK EDWARDS NATIONAL|17.1|838|30.2896388888889|-87.6717777777778
AIRPORT|8A1|AL|GUNTERSVILLE|GUNTERSVILLE MUNI - JOE STARNES FIELD|614.6|15|34.4061891944444|-86.2608702777778
HELIPORT|5AL0|AL|GUNTERSVILLE|MARSHALL MEDICAL CENTER NORTH|1024||34.3651722222222|-86.422975
AIRPORT|AL10|AL|GURLEY|FRERICHS|650|64|34.6512008333333|-86.4169316666667
AIRPORT|1M4|AL|HALEYVILLE|POSEY FIELD|929.8|120|34.2803333333333|-87.6004166666667
HELIPORT|98AL|AL|HALEYVILLE|LAKELAND COMMUNITY HOSPITAL|960||34.2423694444444|-87.5922916666667
AIRPORT|HAB|AL|HAMILTON|MARION COUNTY-RANKIN FITE|436|173|34.1169444444444|-87.9982222222222
HELIPORT|9AL8|AL|HAMILTON|NORTH MISSISSIPPI MEDICAL CENTER-HAMILTON|441||34.1271944444444|-87.9908333333333
AIRPORT|2AL7|AL|HANCEVILLE|MOUNT AERO LAKE FARM|625|90|34.0627777777778|-86.7230555555556
AIRPORT|AL92|AL|HARPERSVILLE|HAWK FIELD|420|10|33.3073338888889|-86.4035897222222
AIRPORT|AL62|AL|HARTFORD|STRIPLIN AIRFIELD|255|14|31.0829558333333|-85.6835441666667
AIRPORT|3AL1|AL|HARTFORD|FLYING H RANCH|264||31.0504166666667|-85.6852777777778
HELIPORT|4AL4|AL|HARTSELLE|FROBERG|630||34.4272222222222|-86.915
AIRPORT|5M0|AL|HARTSELLE|HARTSELLE-MORGAN COUNTY REGIONAL|628.5|62|34.4082222222222|-86.9329444444444
AIRPORT|00AL|AL|HARVEST|EPPS AIRPARK|820|15|34.8648102777778|-86.7702775
AIRPORT|8AL7|AL|HAZEL GREEN|HAZEL GREEN ACRES|908|9|34.9804722222222|-86.6923055555555
AIRPORT|M38|AL|HAZEL GREEN|HAZEL GREEN|814|30|34.916|-86.6471111111111
AIRPORT|0J6|AL|HEADLAND|HEADLAND MUNI|358.6|328|31.3641388888889|-85.3125277777778
HELIPORT|AL70|AL|HOOVER|ABC 33/40|550|1|33.3527805555556|-86.7878611111111
HELIPORT|9AL1|AL|HOOVER|BROOKWOOD FED HELIPAD|606||33.4202777777778|-86.6694444444445
HELIPORT|8AL1|AL|HOOVER|MED WEST- HOOVER|600||33.3547222222222|-86.8558333333333
HELIPORT|0AL0|AL|HUNTSVILLE|HUNTSVILLE FIELD|619||34.6884241666667|-86.5888813888889
AIRPORT|AL93|AL|HUNTSVILLE|BIG SKY|830|19|34.8856433333333|-86.7099977777778
AIRPORT|HSV|AL|HUNTSVILLE|HUNTSVILLE INTL-CARL T JONES FIELD|628.9|6000|34.6371944444444|-86.7750555555556
HELIPORT|AL36|AL|HUNTSVILLE|THE HUNTSVILLE HOSPITAL|728||34.7209961111111|-86.5808391666667
AIRPORT|3M5|AL|HUNTSVILLE|MOONTOWN|655|17|34.7473611111111|-86.4609722222222
AIRPORT|4AL8|AL|HUNTSVILLE|MILTON|639||34.4905416666667|-86.6734333333333
AIRPORT|MDQ|AL|HUNTSVILLE|HUNTSVILLE EXECUTIVE AIRPORT TOM SHARP JR FLD|763.5|485|34.8593611111111|-86.5575277777778
AIRPORT|AL05|AL|HURTSBORO|SEHOY|331||32.221336|-85.471783
AIRPORT|2AL6|AL|IRVINGTON|DALE O GALER AERODROME|40|17|30.4919805555556|-88.1973083333333
AIRPORT|AL37|AL|JACK|BENEDICK|335|32|31.5550277777778|-85.9772777777778
AIRPORT|4R3|AL|JACKSON|JACKSON MUNI|62.4|112|31.4705597222222|-87.8959013888889
AIRPORT|3AL5|AL|JACKSONVILLE|EDWARDS FARM|750|4|33.8353055555556|-85.7639166666667
HELIPORT|AL63|AL|JASPER|WALKER RGNL MEDICAL CENTER|418||33.8440055555556|-87.2366638888889
AIRPORT|JFX|AL|JASPER|WALKER COUNTY-BEVILL FIELD|482.6|297|33.902|-87.3138333333333
HELIPORT|8AL4|AL|JEMISON|LAY DAM|331||32.9592305555556|-86.5195638888889
AIRPORT|5AL7|AL|KINSTON|JOHN H HATAWAY|300||31.25|-86.1666666666667
AIRPORT|7A3|AL|LANETT|LANETT MUNI|624|150|32.8119188888889|-85.2296476388889
HELIPORT|9AL3|AL|LEESBURG|WEISS DAM|570||34.1322611111111|-85.7954083333333
AIRPORT|4AL9|AL|LAPINE|T W SPEAR MEMORIAL|438|115|31.9747222222222|-86.2938888888889
HELIPORT|7AL1|AL|LEXINGTON|EXPLORER HELIPORT|790||34.99375|-87.3419444444445
HELIPORT|9AL6|AL|LILLIAN|LILLIAN COMMUNITY|70||30.4072083333333|-87.4418138888889
AIRPORT|AL88|AL|LILLIAN|BAN FARM|80|40|30.4265866666667|-87.4708127777778
AIRPORT|AL35|AL|LOXLEY|MC GINNIS|125|20|30.6196363888889|-87.7044325
AIRPORT|57AL|AL|LOXLEY|BASWELL|190||30.6531944444444|-87.72375
AIRPORT|1AL5|AL|LOXLEY|BERRY FIELD|170||30.6363888888889|-87.7477777777778
AIRPORT|AL97|AL|LOXLEY|WILLIAMSON FARM|162|5|30.6451194444444|-87.6705638888889
AIRPORT|04A|AL|LUVERNE|FRANK SIKES|302|35|31.7363869444444|-86.2624546388889
AIRPORT|7AL7|AL|MADRID|PRATT LANDING|184|20|31.0645|-85.4393888888889
AIRPORT|2AL1|AL|MAGNOLIA SPRINGS|COLLIER AIRPARK|74|80|30.4240861111111|-87.7777669444445
AIRPORT|AL76|AL|MAPLESVILLE|MAYFIELD (PVT)|495||32.8487369444444|-86.8699883333333
AIRPORT|A08|AL|MARION|VAIDEN FIELD|220|480|32.5105|-87.3847777777778
HELIPORT|AL95|AL|MC INTOSH|MC INTOSH COMMUNITY|50|4|31.2735036111111|-88.0125005555555
AIRPORT|AL09|AL|MENTONE|CLOUDMONT AIRPARK|1692|10|34.5408569444444|-85.5922930555556
AIRPORT|BFM|AL|MOBILE|MOBILE DOWNTOWN|26.2|1616|30.6267777777778|-88.0680833333333
HELIPORT|AL52|AL|MOBILE|USA MEDICAL CENTER|28||30.7079833333333|-88.0984694444444
HELIPORT|AL82|AL|MOBILE|PROVIDENCE HOSPITAL|210||30.6793569444444|-88.2000033333333
AIRPORT|62AL|AL|MOBILE|SKYWEST AIRPARK|150|15|30.6835244444444|-88.3719555555555
AIRPORT|26AL|AL|MOBILE|RICHARDSON FIELD|180|52|30.6313888888889|-88.2797222222222
AIRPORT|MOB|AL|MOBILE|MOBILE RGNL|218.7|1717|30.6914166666667|-88.2428333333333
HELIPORT|1AL6|AL|MONROEVILLE|MONROE COUNTY HOSPITAL|403||31.49885|-87.3208361111111
AIRPORT|MVC|AL|MONROEVILLE|MONROE COUNTY AEROPLEX|419.1|56|31.4580555555556|-87.3510277777778
AIRPORT|5AL3|AL|MONTEVALLO|FLYING X RANCH|466|10|33.152895|-86.8513777777778
AIRPORT|MXF|AL|MONTGOMERY|MAXWELL AFB|170.8||32.3829444444444|-86.3657777777778
HELIPORT|1AL3|AL|MONTGOMERY|MONTGOMERY CREW HEADQUARTERS|186||32.4091638888889|-86.2561111111111
HELIPORT|1AL7|AL|MONTGOMERY|BUSINESS CENTER OF ALABAMA|403||32.3778638888889|-86.2959611111111
HELIPORT|AL11|AL|MONTGOMERY|BAPTIST MEDICAL CENTER|252||32.3275277777778|-86.2765555555555
AIRPORT|AL12|AL|MONTGOMERY|KERSHAW|225||32.3584725|-86.1249630555556
AIRPORT|MGM|AL|MONTGOMERY|MONTGOMERY RGNL (DANNELLY FIELD)|221.1|1907|32.3006388888889|-86.3939722222222
AIRPORT|1AL8|AL|MOODY|MOORE FIELD|730|56|33.6111111111111|-86.4744444444444
AIRPORT|AL34|AL|MOULTON|"ELAM'S LANDING"|685|75|34.44704|-87.3861327777778
HELIPORT|AL86|AL|MOULTON|LAWRENCE COUNTY HOSPITAL|658|1|34.4840777777778|-87.284875
AIRPORT|AL44|AL|MOUNDVILLE|MOUNDVILLE|162|23|32.9694902777778|-87.6370208333333
HELIPORT|AL24|AL|MOUNT OLIVE|ROTOR WING INC|630||33.6776277777778|-86.8703444444444
AIRPORT|MSL|AL|MUSCLE SHOALS|NORTHWEST ALABAMA RGNL|550.5|640|34.7453055555556|-87.6102222222222
HELIPORT|AL53|AL|MUSCLE SHOALS|SHOALS HOSPITAL|500||34.7472861111111|-87.6777722222222
AIRPORT|5AL5|AL|MUSCLE SHOALS|BIG RIVER AIRPARK|505||34.6911111111111|-87.6527777777778
HELIPORT|4AL0|AL|NORTHPORT|BANKHEAD DAM|376||33.4548222222222|-87.36065
HELIPORT|9AL4|AL|OHATCHEE|HENRY DAM|509|100|33.7848666666667|-86.0506722222222
HELIPORT|7AL4|AL|ORANGE BEACH|CARIBE EAST|7|1|30.2777777777778|-87.5433333333333
AIRPORT|20A|AL|ONEONTA|ROBBINS FIELD|1124.9|43|33.9712777777778|-86.3803888888889
HELIPORT|4AL2|AL|ONEONTA|"ST VINCENT'S BLT"|810|0|33.9297222222222|-86.4947222222222
AIRPORT|AL89|AL|OPELIKA|SOMMERSET STRIP|820|25|32.7187425|-85.3668902777778
HELIPORT|3AL2|AL|OPELIKA|EAST ALABAMA MEDICAL CENTER|749||32.6391666666667|-85.4022222222222
AIRPORT|AL71|AL|OUR TOWN|WILLOW POINT|551|90|32.8037377777778|-85.9805191666667
AIRPORT|3AL8|AL|OWENS CROSSROADS|FLINT RIVER RANCH|590|7|34.6191666666667|-86.4669444444445
HELIPORT|7AL3|AL|OXFORD|OXFORD POLICE HELIPORT|633||33.600448|-85.864283
AIRPORT|71J|AL|OZARK|OZARK-BLACKWELL FIELD|357.9|114|31.431812|-85.6205339166667
HELIPORT|AL87|AL|OZARK|DALE MEDICAL CENTER|390|8|31.4509166666667|-85.6322305555556
AIRPORT|36AL|AL|OZARK|HIDDEN SPRINGS AIRPARK|346|86|31.4928888888889|-85.5342777777778
HELIPORT|8AL5|AL|PARRISH|PLANT GORGAS|256||33.6424833333333|-87.1971722222222
HELIPORT|37AL|AL|PELL CITY|VETERANS|455||33.6038361111111|-86.3029472222222
AIRPORT|PLR|AL|PELL CITY|ST CLAIR COUNTY|485|200|33.5588333333333|-86.2490555555555
AIRPORT|AL33|AL|PERDIDO|STURDY OAK FARM|230|40|31.0360305555556|-87.5938083333333
HELIPORT|50AL|AL|PERDIDO BEACH|PERDIDO BEACH VFD|14|3|30.3469111111111|-87.50575
AIRPORT|2AL8|AL|PHENIX CITY|FINKLEY FARM|413||32.4211111111111|-85.2480555555556
AIRPORT|AL79|AL|PIKE ROAD|BARTLETT RANCH|305||32.2695863888889|-86.0988497222222
AIRPORT|84AL|AL|PINCKARD|BLESSINGS LANDING AIR RANCH|420|60|31.3026111111111|-85.5231388888889
AIRPORT|7AL5|AL|PINCKARD|LIBERTY FIELD|363|9|31.2899027777778|-85.5404777777778
AIRPORT|AL16|AL|PINSON|TURKEY CREEK|640||33.7267680555556|-86.7236022222222
AIRPORT|1A9|AL|PRATTVILLE|PRATTVILLE - GROUBY FIELD|224.9|82|32.4387222222222|-86.5126944444444
AIRPORT|HUA|AL|REDSTONE ARSNL HUNTSVILLE|REDSTONE AAF|685||34.6786547222222|-86.6847825
AIRPORT|3M8|AL|REFORM|NORTH PICKENS|236.8|64|33.3867527777778|-88.0065791666667
AIRPORT|7A5|AL|ROANOKE|ROANOKE MUNI|907|59|33.1296777777778|-85.3722152777778
HELIPORT|2AL2|AL|ROANOKE|RANDOLPH COUNTY HOSPITAL|839||33.1572583333333|-85.3891166666667
AIRPORT|AL25|AL|ROBA|SPRATLING FIELD|368||32.2423686111111|-85.6010594444444
AIRPORT|AL84|AL|ROBERTSDALE|PECAN PONDS FARM|125|14|30.5585269444444|-87.6041513888889
AIRPORT|1AL4|AL|ROBERTSDALE|ELSANOR|180||30.5447222222222|-87.5594444444444
AIRPORT|M22|AL|RUSSELLVILLE|BILL PUGH FIELD|717.8|177|34.4450833333333|-87.7116388888889
AIRPORT|2R5|AL|ST ELMO|ST ELMO|132.4|733|30.5019166666667|-88.2751111111111
AIRPORT|5AL8|AL|SAMSON|FAIRLANE|225|4|31.105|-85.9930555555556
AIRPORT|1A4|AL|SAMSON|LOGAN FIELD|200||31.1037027777778|-86.0626
HELIPORT|36AA|AL|SAWYERVILLE|W. M. THOMAS PAD|165||32.7168361111111|-87.749525
AIRPORT|4A6|AL|SCOTTSBORO|SCOTTSBORO MUNI-WORD FIELD|650.3|49|34.6886944444444|-86.0059444444445
HELIPORT|03AL|AL|SCOTTSBORO|HIGHLAND MEDICAL CENTER|618||34.6625972222222|-86.0467666666667
HELIPORT|8AL6|AL|SCOTTSBORO|AIR EVAC BASE 32|612||34.6602861111111|-86.0492388888889
AIRPORT|SEM|AL|SELMA|CRAIG FIELD|166.2|1790|32.3439466666667|-86.9878055555556
HELIPORT|AL90|AL|SELMA|VAUGHAN REGIONAL MEDICAL CENTER|150||32.4286694444444|-87.0570111111111
AIRPORT|AL74|AL|SEMMES|GRIMES FIELD|215|80|30.764355|-88.3058413888889
AIRPORT|AL41|AL|SLOCOMB|FREEDOM FIELD|285|200|31.1160105555556|-85.6254888888889
HELIPORT|9AL7|AL|SHORTER|MOSSLAND WILDFLIFE FARMS|287||32.3652777777778|-85.8119444444444
HELIPORT|2AL0|AL|SMITHS STATION|PLANT FRANKLIN|523||32.6075333333333|-85.0945861111111
SEAPLANE BASE|AL58|AL|SPANISH FORT|LOWER DELTA|0|11|30.6754758333333|-87.9598711111111
AIRPORT|7AL2|AL|STEELE|PETERSON FIELD|600|1|33.8648208333333|-86.3108358333333
AIRPORT|7A6|AL|STEVENSON|STEVENSON|644|86|34.8862763888889|-85.8032888888889
SEAPLANE BASE|HL2|AL|STOCKTON|HUBBARD LANDING|8||31.0636111111111|-87.87
AIRPORT|AL69|AL|SEMINOLE|VAUGHN|30|17|30.5085286111111|-87.4916475
AIRPORT|4AL6|AL|SUMMERDALE|BONNER FIELD|105|7|30.4668625|-87.6833197222222
AIRPORT|NFD|AL|SUMMERDALE|SUMMERDALE NOLF|149||30.507695|-87.6455411111111
AIRPORT|SCD|AL|SYLACAUGA|MERKEL FIELD SYLACAUGA MUNI|568.9|243|33.1718333333333|-86.3055277777778
SEAPLANE BASE|46AL|AL|SYLACAUGA|"SLY PIG'S BASE"|396||33.1983333333333|-86.475
AIRPORT|8AL2|AL|TALLADEGA|CHARLES C KILLOUGH FIELD|443|6|33.355426|-86.262135
AIRPORT|ASN|AL|TALLADEGA|TALLADEGA MUNI|528.8|1029|33.5695041666667|-86.0512013888889
HELIPORT|AL83|AL|TALLASSEE|COMMUNITY HOSPITAL|400|1|32.5334527777778|-85.9117138888889
HELIPORT|5AL2|AL|THEODORE|MIDSTREAM FUEL SERVICE|0|13|30.5265830555556|-88.0988877777778
HELIPORT|AL48|AL|THOMASVILLE|SOUTHWEST ALABAMA MEDICAL CENTER|265||31.9307077777778|-87.7375038888889
AIRPORT|3AL7|AL|THOMASTON|FLOWERS FIELD|280||32.285|-87.52
AIRPORT|TOI|AL|TROY|TROY MUNI AT N KENNETH CAMPBELL FIELD|397.2|501|31.86|-86.0138888888889
AIRPORT|AL77|AL|TROY|SMART ROAD|425||31.7405555555556|-86.0070277777778
AIRPORT|TCL|AL|TUSCALOOSA|TUSCALOOSA RGNL|169.9|724|33.2206275277778|-87.6114015
HELIPORT|AL26|AL|TUSCALOOSA|BRYANT CULBERSON|283||33.2059516666667|-87.5277833333333
HELIPORT|3AL3|AL|TUSCALOOSA|TUSCALOOSA POLICE DEPARTMENT|160||33.1740555555556|-87.5570555555556
HELIPORT|9AL2|AL|TUSCALOOSA|HOLT DAM|250||33.2567111111111|-87.4504916666667
HELIPORT|6AL4|AL|TUSCUMBIA|AIR EVAC 16|512||34.6717138888889|-87.6328138888889
AIRPORT|06A|AL|TUSKEGEE|MOTON FIELD MUNI|264|275|32.4604722222222|-85.6800277777778
AIRPORT|27AL|AL|TUSKEGEE|LITTLE TEXAS|500|15|32.4535277777778|-85.5581555555556
AIRPORT|07A|AL|UNION SPRINGS|FRANKLIN FIELD|300|50|32.1662030555556|-85.8097763888889
HELIPORT|AL07|AL|VALLEY|EAMC-LANIER|570||32.829542|-85.168723
AIRPORT|M55|AL|VERNON|LAMAR COUNTY|463|75|33.8467188888889|-88.1154758333333
HELIPORT|7AL0|AL|VINCENT|LOGAN MARTIN DAM|485||33.4272583333333|-86.3408388888889
HELIPORT|4AL1|AL|WEDOWEE|TANNER EAST ALABAMA|970||33.2944444444444|-85.4802777777778
AIRPORT|08A|AL|WETUMPKA|WETUMPKA MUNI|197.1|312|32.5273333333333|-86.3310277777778
AIRPORT|2AL3|AL|WETUMPKA|EMERALD MOUNTAIN|365||32.4554141666667|-86.1191666666667
AIRPORT|AL94|AL|WILMER|EVANS FIELD|212||30.8126877777778|-88.3772341666667
AIRPORT|AL17|AL|WILSONVILLE|LAZY EIGHT AIRPARK LLC|450|10|33.2340030555556|-86.5130366666667
HELIPORT|34AL|AL|WILSONVILLE|GASTON STEAM PLANT|461||33.2465333333333|-86.4691333333333
AIRPORT|AL54|AL|WINFIELD|BIRD NEST|420|5|33.8633333333333|-87.8452777777778
AIRPORT|4AL5|AL|WOODVILLE|J5 MIKE|680||34.6663472222222|-86.2222861111111
HELIPORT|8AL8|AL|WOODLAND|WOODLAND CLINIC|1119||33.3730388888889|-85.3967833333333
HELIPORT|99AL|AL|WOODLAND|MORRISON CROSSROADS VOL FIRE DEPT|1113||33.4271111111111|-85.4934361111111
HELIPORT|18AL|AL|FORT RUCKER/LOUISVILLE|LOUISVILLE STAGEFIELD AHP|385||31.8166861111111|-85.6518166666667
AIRPORT|M73|AR|ALMYRA|ALMYRA MUNI|211|640|34.4124746388889|-91.4652946666667
AIRPORT|54AR|AR|ALTUS|WINFIELD AIRPARK|390||35.3928555555556|-93.7587055555556
AIRPORT|ADF|AR|ARKADELPHIA|DEXTER B FLORENCE MEMORIAL FIELD|181.5|164|34.0998055555556|-93.0660833333333
AIRPORT|41AR|AR|ARKADELPHIA|ASHWORTH|501||34.1233333333333|-93.3497222222222
AIRPORT|08AR|AR|ASHDOWN|GARRISON|329||33.7236111111111|-94.1452777777778
AIRPORT|CVK|AR|ASH FLAT|SHARP COUNTY RGNL|717.1|60|36.2648888888889|-91.5626666666667
HELIPORT|AR76|AR|AUGUSTA|AUGUSTA|212||35.2886966666667|-91.3584616666667
AIRPORT|M60|AR|AUGUSTA|WOODRUFF COUNTY|200|100|35.2719055555556|-91.2703305555556
AIRPORT|M74|AR|BALD KNOB|BALD KNOB MUNI|212|62|35.2994722222222|-91.5576944444445
AIRPORT|BVX|AR|BATESVILLE|BATESVILLE RGNL|465|398|35.7262222222222|-91.6474444444444
HELIPORT|AR24|AR|BATESVILLE|WHITE RIVER MEDICAL CENTER|360||35.7671194444444|-91.6354361111111
AIRPORT|1AR0|AR|BEEDEVILLE|BRECKENRIDGE|221|40|35.400725|-91.129375
AIRPORT|25AR|AR|BELLEVILLE|CEDAR CREEK RANCH|420||35.1334225|-93.4751872222222
AIRPORT|58AR|AR|BENTONVILLE|PRICE COFFEE AIRFIELD|1067||36.4058333333333|-94.1752777777778
AIRPORT|SUZ|AR|BENTON|SALINE COUNTY RGNL|389.4|1200|34.5903888888889|-92.4794444444444
HELIPORT|04AR|AR|BENTON|SALINE MEMORIAL HOSPITAL|430||34.5742444444444|-92.5860305555556
AIRPORT|VBT|AR|BENTONVILLE|BENTONVILLE MUNI/LOUISE M THADEN FIELD|1298|130|36.34525|-94.2193361111111
HELIPORT|27AR|AR|BENTONVILLE|NW MEDICAL OF BENTON|1277||36.3390111111111|-94.1904944444445
AIRPORT|4M1|AR|BERRYVILLE|CARROLL COUNTY|1205.5|51|36.3813333333333|-93.6245555555556
HELIPORT|AR41|AR|BERRYVILLE|CARROLL GENERAL HOSPITAL|1280||36.3592416666667|-93.5509027777778
HELIPORT|AR51|AR|BERRYVILLE|SMITH|1200||36.2239613888889|-93.5782444444444
AIRPORT|17A|AR|BERRYVILLE|TRIGGER GAP|1630||36.3277777777778|-93.6219444444444
AIRPORT|AR13|AR|BIGELOW|PEARSON FIELD|300|40|34.9861986111111|-92.6334958333333
AIRPORT|2AR8|AR|BLACK OAK|HICKMAN|258||35.8311055555556|-90.3704138888889
AIRPORT|BYH|AR|BLYTHEVILLE|ARKANSAS INTL|254.1|1100|35.9643333333333|-89.9439444444445
AIRPORT|HKA|AR|BLYTHEVILLE|BLYTHEVILLE MUNI|255.7|88|35.9404166666667|-89.8308055555556
HELIPORT|AR30|AR|BLYTHEVILLE|GREAT RIVER MEDICAL CENTER|254||35.9434166666667|-89.91775
AIRPORT|4M2|AR|BOONEVILLE|BOONEVILLE MUNI|467.8|207|35.1495263333333|-93.8633895555556
AIRPORT|15AR|AR|BRICKEYS|TAYLOR|220||34.8258611111111|-90.5433333333333
AIRPORT|M36|AR|BRINKLEY|FRANK FEDERER MEMORIAL|195.3|166|34.8802777777778|-91.1764444444444
AIRPORT|62AR|AR|BUSCH|BANKS RANCH|1061||36.4648138888889|-93.8692833333333
AIRPORT|12XS|AR|BUTLERVILLE|MC CROSKEY FIELD|253|20|34.9547|-91.837925
AIRPORT|3AR3|AR|CABOT|CYPRESS CREEK|280||35.0595805555556|-92.0820138888889
AIRPORT|3AR4|AR|CABOT|FOUR MILE CREEK RANCH|500||35.0056555555556|-92.0774444444444
AIRPORT|4AR1|AR|CABOT|SHURLEY FIELD|430||35.0412666666667|-92.1010166666667
AIRPORT|4AR2|AR|CABOT|RED OAK|315||34.91|-92.0066666666667
AIRPORT|73AR|AR|CABOT|DOGWOOD|280||35.0485222222222|-92.0537416666667
AIRPORT|37T|AR|CALICO ROCK|CALICO ROCK-IZARD COUNTY|733|60|36.1645277777778|-92.1444722222222
AIRPORT|CDH|AR|CAMDEN|HARRELL FIELD|129.6|1146|33.6228055555556|-92.7633888888889
HELIPORT|AR42|AR|CAMDEN|OUACHITA COUNTY MEDICAL CENTER|212||33.5765832222222|-92.8361973055556
AIRPORT|RBM|AR|CAMP ROBINSON/LITTLE ROCK|ROBINSON AAF/NG|587||34.85009|-92.3001513888889
AIRPORT|4M3|AR|CARLISLE|CARLISLE MUNI|240.8|640|34.8082222222222|-91.7121111111111
AIRPORT|6AR1|AR|CAVE SPRINGS|ELDER AIRSTRIP|1300|20|36.2779083333333|-94.1966
AIRPORT|2AR5|AR|CENTERTON|ASHMORE FIELD|1362||36.3830555555556|-94.2938888888889
AIRPORT|AR03|AR|CENTERVILLE|CENTERVILLE AIRSTRIP|350||35.1186972222222|-93.2015638888889
AIRPORT|28AR|AR|CHARLOTTE|HENLEY AERODROME|377||35.8333333333333|-91.4333333333333
GLIDERPORT|4AR5|AR|CHERRY VALLEY|LAWRENCE FIELD|284|104|35.3708333333333|-90.7505555555556
AIRPORT|AR05|AR|CHICKALA|JOHN HARRIS FIELD|1770||35.2159194444444|-93.3049
AIRPORT|4M8|AR|CLARENDON|CLARENDON MUNI|217|160|34.6465888888889|-91.3947166666667
AIRPORT|H35|AR|CLARKSVILLE|CLARKSVILLE MUNI|481|156|35.4706941666667|-93.427155
HELIPORT|AR02|AR|CLARKSVILLE|JOHNSON RGNL MEDICAL CENTER|491||35.4612027777778|-93.4453555555556
AIRPORT|CCA|AR|CLINTON|CLINTON MUNI|513.9|52|35.59775|-92.4515833333333
HELIPORT|31AR|AR|CLINTON|VAN BUREN COUNTY MEMORIAL HOSPITAL|700||35.559975|-92.4518
AIRPORT|2A2|AR|CLINTON|HOLLEY MOUNTAIN AIRPARK|1269|506|35.6507190277778|-92.4038129444444
AIRPORT|DRP|AR|COLT|DELTA RGNL|239|699|35.1200555555556|-90.8265
AIRPORT|7AR3|AR|COLT|RUNSICK FLYING SERVICE|250||35.1511111111111|-90.8155555555556
HELIPORT|4AR3|AR|CONWAY|CONWAY RGNL HEALTH SYSTEM|385||35.0854861111111|-92.4583111111111
AIRPORT|AR88|AR|CONWAY|"POE'S"|295||35.0548083333333|-92.3540427777778
AIRPORT|AR06|AR|CONWAY|CANTRELL FARMS|325||35.2325|-92.3433333333333
AIRPORT|CXW|AR|CONWAY|CANTRELL FLD|276.1|432|35.0198888888889|-92.5551111111111
HELIPORT|1AR3|AR|CONWAY|BAPTIST HEALTH MEDICAL CENTER CONWAY|283||35.0577833333333|-92.4191194444444
AIRPORT|4M9|AR|CORNING|CORNING MUNI|293.2|135|36.4042313888889|-90.6479263888889
AIRPORT|61AR|AR|COTTER|THE VALLEY|450||36.3084011111111|-92.5307177777778
AIRPORT|1AR1|AR|COY|WALLS|215||34.5271777777778|-91.8726638888889
AIRPORT|0AR2|AR|CRAWFORDSVILLE|MISSION FIELD-MAROTTI MEMORIAL|217|20|35.2667544444444|-90.3500991666667
AIRPORT|CRT|AR|CROSSETT|Z M JACK STELL FIELD|183.5|126|33.1783333333333|-91.8801944444444
HELIPORT|AR07|AR|CROSSETT|ASHLEY COUNTY HOSPITAL|164||33.1417861111111|-91.9334638888889
HELIPORT|50AR|AR|DANVILLE|JOHN ED CHAMBERS MEMORIAL HOSPITAL|340||35.0546333333333|-93.3829888888889
AIRPORT|32A|AR|DANVILLE|DANVILLE MUNI|392.5|150|35.0869444444444|-93.4275277777778
HELIPORT|AR32|AR|DARDANELLE|DARDANELLE HOSPITAL|320||35.2209183333333|-93.152675
AIRPORT|5M5|AR|DECATUR|CRYSTAL LAKE|1177.8|55|36.3436111111111|-94.4448333333333
AIRPORT|DEQ|AR|DE QUEEN|J LYNN HELMS SEVIER COUNTY|354.8|85|34.047|-94.3993611111111
HELIPORT|01AR|AR|DE QUEEN|COMMUNITY HOSPITAL OF DE QUEEN|400||34.0476861111111|-94.35375
AIRPORT|4M5|AR|DERMOTT|DERMOTT MUNI|135|20|33.4879533333333|-91.4426113888889
AIRPORT|1AR2|AR|DES ARC|TAYLOR AIRSTRIP|208|10|34.9867833333333|-91.5503
HELIPORT|AR59|AR|DE WITT|DE WITT HOSPITAL|190||34.2788083333333|-91.3386277777778
AIRPORT|5M1|AR|DE WITT|DE WITT MUNICIPAL AIRPORT WHITCOMB FIELD|188.8|79|34.2622777777778|-91.3075
AIRPORT|49AR|AR|DE WITT|"SID'S PLACE"|194||34.2144444444444|-91.4577777777778
AIRPORT|AR89|AR|DOVER|LANDERS LOOP|730|80|35.4000819444444|-93.0660061111111
AIRPORT|0M0|AR|DUMAS|BILLY FREE MUNI|164.2|73|33.8845277777778|-91.5342777777778
AIRPORT|63AR|AR|EARLE|STOKES|212|17|35.2514763888889|-90.4598244444445
AIRPORT|7AR7|AR|ELAINE|RIDDELL FIELD|169||34.3211972222222|-90.8576694444444
AIRPORT|F43|AR|EL DORADO|EL DORADO DOWNTOWN-STEVENS FIELD|256|88|33.19125|-92.6632222222222
HELIPORT|AR47|AR|EL DORADO|WARNER BROWN HOSPITAL|212||33.2138666666667|-92.6683388888889
HELIPORT|AR48|AR|EL DORADO|UNION MEDICAL CENTER|265|3|33.2145738888889|-92.6679341666667
AIRPORT|ELD|AR|EL DORADO|SOUTH ARKANSAS RGNL AT GOODWIN FIELD|276.8|1540|33.2212378055556|-92.8117488888889
AIRPORT|6AR0|AR|EL PASO|CYPRESS CREEK AIRPARK|270||35.0605558333333|-92.116111
AIRPORT|17AR|AR|ENGLAND|BREDLOW FARM|236|5|34.5530555555556|-92.0913888888889
AIRPORT|7AR1|AR|EUDORA|"WARD'S"|113||33.0500666666667|-91.3407305555556
HELIPORT|0AR9|AR|EUREKA SPRINGS|EUREKA SPRINGS HOSPITAL|1540||36.4001361111111|-93.7436777777778
ULTRALIGHT|AR08|AR|EUREKA SPRINGS|FLYING MACHINES AIRSTRIP|1150||36.3153472222222|-93.6665777777778
AIRPORT|55AR|AR|EUREKA SPRINGS|SILVER WINGS FIELD|1571|72|36.4297222222222|-93.6955555555556
AIRPORT|7AR0|AR|EUREKA SPRINGS|HAMMER FIELD|1600|50|36.4314444444444|-93.6993055555556
AIRPORT|18AR|AR|EUREKA SPRINGS|BUCK MOUNTAIN|1450|25|36.3441666666667|-93.8316666666667
AIRPORT|FYV|AR|FAYETTEVILLE|DRAKE FIELD|1252|631|36.0050833333333|-94.1700555555556
AIRPORT|XNA|AR|FAYETTEVILLE/SPRINGDALE/ROGERS|NORTHWEST ARKANSAS RGNL|1288.2|2184|36.2815791666667|-94.3077655555556
AIRPORT|67AR|AR|FAYETTEVILLE|WEDINGTON WOODS|1090||36.0977777777778|-94.3075
HELIPORT|AR49|AR|FAYETTEVILLE|VETERANS ADMINISTRATION|1453|1|36.0792458333333|-94.1590927777778
HELIPORT|4AR8|AR|FAYETTEVILLE|WASHINGTON RGNL LANDING|1292||36.1082|-94.1587666666667
AIRPORT|48AR|AR|FISHER|WHIRLWIND AVIATION|240||35.48375|-90.8409027777778
AIRPORT|FLP|AR|FLIPPIN|MARION COUNTY RGNL|719.9|80|36.2908888888889|-92.59025
AIRPORT|45AR|AR|FLIPPIN|THUNDER RIDGE RANCH|789||36.36725|-92.6402222222222
AIRPORT|6AR9|AR|FLIPPIN|PINE MOUNTAIN AIRPARK|880||36.4152777777778|-92.6944444444444
AIRPORT|5M4|AR|FORDYCE|FORDYCE MUNI|193|109|33.8457922222222|-92.3655288888889
HELIPORT|7AR5|AR|FORDYCE|DALLAS COUNTY MEDICAL CENTER|300||33.8112638888889|-92.4247416666667
AIRPORT|FCY|AR|FORREST CITY|HUTFLY-FCY|249.2|80|34.9419980555556|-90.7749661111111
HELIPORT|AR72|AR|FORREST CITY|FORREST CITY MEDICAL CENTER|350||35.0390638888889|-90.7771611111111
AIRPORT|AZU|AR|FORT CHAFFEE|ARROWHEAD ASSAULT STRIP|785|35|35.2750916666667|-94.2252094444444
AIRPORT|FSM|AR|FORT SMITH|FORT SMITH RGNL|469|1359|35.3365833333333|-94.3674444444444
HELIPORT|AR21|AR|FORT SMITH|ST EDWARD MERCY MEDICAL CENTER|454||35.35375|-94.3520527777778
HELIPORT|AR40|AR|FORT SMITH|SPARKS RGNL MEDICAL CENTER|460||35.3731583333333|-94.4193333333333
AIRPORT|40AR|AR|GARFIELD|LOST BRIDGE VILLAGE|1440|33|36.3965722222222|-93.9097861111111
AIRPORT|1AR5|AR|GENTRY|CHEROKEE STRIP|1194||36.2994444444444|-94.5847222222222
AIRPORT|70AR|AR|GOSNELL|RANDAL FIELD|242||35.9945152777778|-89.9973113888889
HELIPORT|0AR4|AR|GRAVETTE|OZARKS COMMUNITY HOSPITAL|1204||36.4092777777778|-94.4600555555556
AIRPORT|AR09|AR|GRAVETTE|BELLA VISTA FIELD|1200|10|36.4138888888889|-94.4388888888889
AIRPORT|12A|AR|GREENBRIER|ARKAVALLEY|329|52|35.1775296111111|-92.3350669722222
AIRPORT|52AR|AR|GREENBRIER|"IRA'S AIRSTRIP"|590||35.2800805555556|-92.2415388888889
AIRPORT|1AR6|AR|GREERS FERRY|DIAMOND BLUFF|1000||35.5033277777778|-92.1967083333333
AIRPORT|7AR2|AR|GREERS FERRY|"VERSER'S LANDING"|610||35.5572|-92.1321
AIRPORT|33AR|AR|GREERS FERRY|SKYPOINT ESTATES|547||35.6022222222222|-92.1425
AIRPORT|30AR|AR|GREERS FERRY|PHALANX|584||35.5443611111111|-92.0561666666667
AIRPORT|36AR|AR|GREGORY|DAVID STANLEY MEMORIAL|200||35.2063888888889|-91.3188888888889
AIRPORT|94AR|AR|GREGORY|GALLOWAY FARMS|195||35.1563833333333|-91.3318805555556
AIRPORT|3AR5|AR|GRIFFITHVILLE|TRIPP STRIP|210||35.1178638888889|-91.6118833333333
AIRPORT|5M8|AR|GURDON|GURDON LOWE FIELD|229|120|33.9237777777778|-93.1681388888889
AIRPORT|20AR|AR|GUY|RAK|660||35.3078583333333|-92.3201527777778
AIRPORT|0R6|AR|HAMPTON|HAMPTON MUNI|178|34|33.5226111111111|-92.4602777777778
AIRPORT|HRO|AR|HARRISON|BOONE COUNTY|1364.5|425|36.2615205555556|-93.1547288888889
HELIPORT|AR80|AR|HARRISON|NORTH ARKANSAS MEDICAL CENTER|1150||36.23646|-93.1093430555556
AIRPORT|3AR2|AR|HARRISON|RIDGEWAY FIELD|1400|80|36.3200666666667|-93.2015666666667
AIRPORT|6M0|AR|HAZEN|HAZEN MUNI|230|480|34.7592138888889|-91.6380458333333
AIRPORT|AR10|AR|HAZEN|GREENWALT COMPANY|232|4|34.8066666666667|-91.6083333333333
AIRPORT|21AR|AR|HAZEN|SKARDA/TOLLVILLE|218||34.7175916666667|-91.5390194444444
AIRPORT|3AR8|AR|HEBER SPRINGS|RIVER ACRES|260||35.4667461111111|-91.9668136111111
HELIPORT|6AR4|AR|HEBER SPRINGS|BAPTIST HEALTH MEDICAL CENTER-HEBER SPRINGS|538||35.5048888888889|-91.9976944444444
AIRPORT|HBZ|AR|HEBER SPRINGS|HEBER SPRINGS MUNI|632.3|88|35.5116938888889|-92.0130094444444
AIRPORT|HEE|AR|HELENA/WEST HELENA|THOMPSON-ROBBINS|241.7|610|34.5765|-90.6758888888889
HELIPORT|AR77|AR|HELENA|HELENA HOSPITAL|215||34.5098247222222|-90.6262177777778
AIRPORT|75AR|AR|HENDERSON|THE BLUFFS|782|17|36.2961780555556|-92.2159886111111
AIRPORT|06AR|AR|HIGDEN|BONDAIR|499|4|35.5445219444444|-92.1848744444444
HELIPORT|2AR9|AR|HOLIDAY ISLAND|ISLAND HEALTH CLINIC|1547||36.4552777777778|-93.7193583333333
AIRPORT|2A6|AR|HOLLY GROVE|HOLLY GROVE MUNI|176|67|34.5824444444444|-91.1652222222222
AIRPORT|M18|AR|HOPE|HOPE MUNI|359.2|1575|33.7199811388889|-93.6589037222222
HELIPORT|1AR7|AR|HOPE|WADLEY RGNL MEDICAL CENTER AT HOPE|375||33.64845|-93.5850388888889
AIRPORT|6M2|AR|HORSESHOE BEND|HORSESHOE BEND|781.8|115|36.2213613888889|-91.7554738888889
HELIPORT|11AR|AR|HOT SPRINGS|CHI ST. VINCENT HOSPITAL HOT SPRINGS|558||34.46885|-93.0657666666667
HELIPORT|0AR6|AR|HOT SPRINGS|AMI NATIONAL PARK MEDICAL CENTER|547||34.4861444444444|-93.036575
AIRPORT|77AR|AR|HOT SPRINGS|BENOIT AIRFIELD|490||34.5975|-92.9369444444444
